CUSTOM.updateTime,CUSTOM.isPhoto,CUSTOM.isVideo,CUSTOM.hSpeed [m/s],CUSTOM.distance [m],CUSTOM.travelled [m],CUSTOM.hSpeed.running_max [m/s],CALC.hSpeed [m/s],CALC.distance [m],CALC.travelled [m],CALC.distance.running_max [m],CALC.height.running_max [m],OSD.latitude,OSD.longitude,OSD.height [m],OSD.altitude [m],OSD.xSpeed [m/s],OSD.ySpeed [m/s],OSD.zSpeed [m/s],OSD.pitch,OSD.roll,OSD.yaw,OSD.flycState,OSD.flycState.RAW,OSD.flycCommand,OSD.flycCommand.RAW,OSD.canIOCWork,OSD.groundOrSky,OSD.isMotorUp,OSD.isSwaveWork,OSD.goHomeStatus,OSD.goHomeStatus.RAW,OSD.isImuPreheated,OSD.isVisionUsed,OSD.voltageWarning,OSD.modeChannel,OSD.isGPSused,OSD.compassError,OSD.waveError,OSD.gpsLevel,OSD.batteryType,OSD.isAcceletorOverRange,OSD.isVibrating,OSD.isBarometerDeadInAir,OSD.isMotorBlocked,OSD.isNotEnoughForce,OSD.isPropellerCatapult,OSD.isGoHomeHeightModified,OSD.isOutOfLimit,OSD.gpsNum,OSD.flightAction,OSD.flightAction.RAW,OSD.motorStartFailedCause,OSD.motorStartFailedCause.RAW,OSD.nonGPSCause,OSD.nonGPSCause.RAW,OSD.isQuickSpin,OSD.battery,OSD.sWaveHeight [m],OSD.flyTime [s],OSD.motorRevolution,OSD.flycVersion,OSD.droneType,OSD.imuInitFailReason,OSD.imuInitFailReason.RAW,OSD.motorFailReason,OSD.motorFailReason.RAW,OSD.ctrlDevice,OSD.ctrlDevice.RAW,GIMBAL.pitch,GIMBAL.roll,GIMBAL.yaw,GIMBAL.mode,GIMBAL.mode.RAW,GIMBAL.rollAdjust,GIMBAL.pitchAdjust,GIMBAL.yawAngle,GIMBAL.isAutoCalibration,GIMBAL.autoCalibrationResult,GIMBAL.isPitchInLimit,GIMBAL.isRollInLimit,GIMBAL.isYawInLimit,GIMBAL.isTopPosition,GIMBAL.isStuck,GIMBAL.version,GIMBAL.isSingleClick,GIMBAL.isDoubleClick,GIMBAL.isTripleClick,GIMBAL.timeStamp,RC.aileron,RC.elevator,RC.throttle,RC.rudder,RC.gimbal,RC.goHome,RC.mode,RC.isWheelChanged,RC.wheelOffset,RC.wheelClick,RC.record,RC.shutter,RC.playback,RC.custom1,RC.custom2,RC.bandwidth,CENTER_BATTERY.relativeCapacity,CENTER_BATTERY.currentPV [V],CENTER_BATTERY.currentCapacity [mAh],CENTER_BATTERY.fullCapacity [mAh],CENTER_BATTERY.life,CENTER_BATTERY.loopNum,CENTER_BATTERY.errorType,CENTER_BATTERY.current [A],CENTER_BATTERY.voltageCell1 [V],CENTER_BATTERY.voltageCell2 [V],CENTER_BATTERY.voltageCell3 [V],CENTER_BATTERY.voltageCell4 [V],CENTER_BATTERY.voltageCell5 [V],CENTER_BATTERY.voltageCell6 [V],CENTER_BATTERY.serialNo,CENTER_BATTERY.productDate,CENTER_BATTERY.temperature [C],CENTER_BATTERY.connStatus,CENTER_BATTERY.totalStudyCycle,CENTER_BATTERY.lastStudyCycle,CENTER_BATTERY.isNeedStudy,CENTER_BATTERY.isBatteryOnCharge,SMART_BATTERY.usefulTime [s],SMART_BATTERY.goHomeTime [s],SMART_BATTERY.landTime [s],SMART_BATTERY.goHomeBattery,SMART_BATTERY.landBattery,SMART_BATTERY.safeFlyRadius,SMART_BATTERY.volumeConsume,SMART_BATTERY.status,SMART_BATTERY.status.RAW,SMART_BATTERY.goHomeStatus,SMART_BATTERY.goHomeStatus.RAW,SMART_BATTERY.goHomeCountdown,SMART_BATTERY.voltage [V],SMART_BATTERY.battery,SMART_BATTERY.lowWarning,SMART_BATTERY.lowWarningGoHome,SMART_BATTERY.seriousLowWarning,SMART_BATTERY.seriousLowWarningLanding,SMART_BATTERY.voltagePercent,DEFORM.isDeformProtected,DEFORM.isExceptionState,DEFORM.deformStatus,DEFORM.deformStatus.RAW,DEFORM.deformMode,DEFORM.deformMode.RAW,RC_GPS.startupTime,RC_GPS.latitude,RC_GPS.longitude,RC_GPS.xSpeed [m/s],RC_GPS.ySpeed [m/s],RC_GPS.gpsNum,RC_GPS.accuracy,RC_GPS.gpsStatus,CAMERA_INFO.connectState,CAMERA_INFO.usbState,CAMERA_INFO.timeSyncState,CAMERA_INFO.photoState,CAMERA_INFO.recordState,CAMERA_INFO.sensorState,CAMERA_INFO.sdCardInsertState,CAMERA_INFO.sdCardState,CAMERA_INFO.firmUpgradeState,CAMERA_INFO.firmErrorType,CAMERA_INFO.hotState,CAMERA_INFO.enabledPhoto,CAMERA_INFO.isStoring,CAMERA_INFO.isTimePhotoing,CAMERA_INFO.encryptStatus,CAMERA_INFO.mode,CAMERA_INFO.sdCardTotalSize,CAMERA_INFO.sdCardFreeSize,CAMERA_INFO.remainedShots,CAMERA_INFO.remainedTime,CAMERA_INFO.videoRecordTime,CAMERA_INFO.cameraType,CAMERA_INFO.version,MC_PARAM.failSafeAction,MC_PARAM.OAenabled,MC_PARAM.VPSenabled,MC_PARAM.rthOAenabled,HOME.latitude,HOME.longitude,HOME.height [m],HOME.isHomeRecord,HOME.goHomeMode,HOME.aircraftHeadDirection,HOME.isDynamicHomePointEnabled,HOME.isReachedLimitDistance,HOME.isReachedLimitHeight,HOME.isMultipleModeOpen,HOME.goHomeStatus,HOME.hasGoHome,HOME.compassCeleStatus,HOME.isCompassCeleing,HOME.isBeginnerMode,HOME.isIOCEnabled,HOME.iocMode,HOME.goHomeHeight [m],HOME.courseLockAngle,HOME.dataRecorderStatus,HOME.dataRecorderRemainCapacity,HOME.dataRecorderRemainTime,HOME.dataRecorderFileIndex,HOME.isFlycInSimulationMode,HOME.isFlycInNavigationMode,HOME.isWingBroken,HOME.isBigGale,HOME.isBigGaleWarning,HOME.isCompassInstallErr,HOME.isFanCurrentInAbnormalState,HOME.paddleState,HOME.heightLimitStatus,HOME.useAbsoluteHeight,HOME.motor1EscmState,HOME.motor2EscmState,HOME.motor3EscmState,HOME.motor4EscmState,HOME.motor5EscmState,HOME.motor6EscmState,HOME.motor7EscmState,HOME.motor8EscmState,HOME.forceLandingHeight [m],RECOVER.droneType,RECOVER.appType,RECOVER.appVersion,RECOVER.aircraftSnBytes,RECOVER.aircraftName,RECOVER.activeTimestamp,RECOVER.cameraSn,RECOVER.rcSn,RECOVER.batterySn,RECOVER.gimbalType,FIRMWARE.version,DETAILS.street,DETAILS.citypart,DETAILS.city,DETAILS.area,DETAILS.isFavorite,DETAILS.isNew,DETAILS.needUpload,DETAILS.recordLineCount,DETAILS.timestamp,DETAILS.latitude,DETAILS.longitude,DETAILS.totalDistance [m],DETAILS.totalTime [s],DETAILS.maxHeight [m],DETAILS.maxHorizontalSpeed [m/s],DETAILS.maxVerticalSpeed [m/s],DETAILS.photoNum,DETAILS.videoTime [s],DETAILS.takeOffAltitude [m],DETAILS.droneType,DETAILS.activeTimestamp,DETAILS.aircraftName,DETAILS.aircraftSnBytes,DETAILS.cameraSn,DETAILS.rcSn,DETAILS.batterySn,DETAILS.appType,DETAILS.appVersion,APP_GPS.latitude,APP_GPS.longitude,APP_GPS.accuracy,APP_TIP.tip,APP_WARN.warn,APP_SER_WARN.warn,APP_MESS.message,General.downlinkSigStrength,OSD.tiltInclination,OSD.tiltDirection
55:01.5,,,0,0,,0,0,0,,0,0,59.485149,18.276162,0,25048,0,0,0,3,0,66.4,EngineStart,41,AutoFly,1,FALSE,Ground,TRUE,FALSE,Other,7,TRUE,FALSE,0,P,TRUE,FALSE,FALSE,4,Smart,FALSE,FALSE,FALSE,FALSE,FALSE,FALSE,FALSE,FALSE,13,AppAutoTakeoff,14,None,0,Already,0,FALSE,0,0.1,0.1,1,31,41,MonitorError,0,,0,RC,0,-4,0,65.9,YawFollow,2,0,0,-0.6,FALSE,0,FALSE,FALSE,FALSE,FALSE,FALSE,1,FALSE,FALSE,FALSE,96925,,,,,,,,,,,,,,,,,,,,,,,,,,,,,,,,,,,,,,,,,,,,,,,,,,,,,,,,,,,,,,,,,,,,,,,,1,0,1,No,No,0,1,Full,0,No,0,0,0,0,CheckSuccess,Record,8064,0,0,0,0,Other,1,GoHome,FALSE,FALSE,FALSE,,,,,,,,,,,,,,,,,,,,,,,,,,,,,,,,,,,,,,,,,,,,,,,,,,,,,,,,,,52,162,0,9464641,,,,1.34E+03,1332084.012,0,0,0,255,37674,25047.48,190,,×2RetÅ°þ3¸´štÉ§t,‘µštÈ¾þ‡ÿ*ó©,LíjâÓ©L,DETAILS.rcSn,DETAILS.batterySn,DETAILS.appType,DETAILS.appVersion,APP_GPS.latitude,APP_GPS.longitude,APP_GPS.accuracy,APP_TIP.tip,APP_WARN.warn,APP_SER_WARN.warn,APP_MESS.message,,3,-113.6
55:01.6,,,0,0.02,,0,0,0,0.02,0,0,59.48515,18.276161,0,25048,0,0,0,3,0,66.4,EngineStart,41,AutoFly,1,FALSE,Ground,TRUE,FALSE,Other,7,TRUE,FALSE,0,P,TRUE,FALSE,FALSE,4,Smart,FALSE,FALSE,FALSE,FALSE,FALSE,FALSE,FALSE,FALSE,13,AppAutoTakeoff,14,None,0,Already,0,FALSE,0,0.1,0.2,1,31,41,MonitorError,0,,0,RC,0,-4,0.1,65.9,YawFollow,2,0,0,-1.2,FALSE,0,FALSE,FALSE,FALSE,FALSE,FALSE,1,FALSE,FALSE,FALSE,97025,,,,,,,,,,,,,,,,,,,,,,,,,,,,,,,,,,,,,,,,,,,,,,,,,,,,,,,,,,,,,,,,,,,,,,,,1,0,1,No,No,0,1,Full,0,No,0,0,0,0,CheckSuccess,Record,8064,0,0,0,0,Other,1,GoHome,FALSE,FALSE,FALSE,,,,,,,,,,,,,,,,,,,,,,,,,,,,,,,,,,,,,,,,,,,,,,,,,,,,,,,,,,52,162,0,9464641,,,,1.34E+03,1332084.012,0,0,0,255,37674,25047.48,190,,×2RetÅ°þ3¸´štÉ§t,‘µštÈ¾þ‡ÿ*ó©,LíjâÓ©L,DETAILS.rcSn,DETAILS.batterySn,DETAILS.appType,DETAILS.appVersion,APP_GPS.latitude,APP_GPS.longitude,APP_GPS.accuracy,APP_TIP.tip,APP_WARN.warn,APP_SER_WARN.warn,APP_MESS.message,100,3,-113.6
55:01.7,,,0,0.05,,0,0.22,0,0.05,0,0,59.48515,18.276161,0,25048,0,0,0,3,0,66.4,EngineStart,41,AutoFly,1,FALSE,Ground,TRUE,FALSE,Other,7,TRUE,FALSE,0,P,TRUE,FALSE,FALSE,4,Smart,FALSE,FALSE,FALSE,FALSE,FALSE,FALSE,FALSE,FALSE,13,AppAutoTakeoff,14,None,0,Already,0,FALSE,0,0.1,0.3,1,31,41,MonitorError,0,,0,RC,0,-4,0.2,65.9,YawFollow,2,0,0,-1.2,FALSE,0,FALSE,FALSE,FALSE,FALSE,FALSE,1,FALSE,FALSE,FALSE,97125,,,,,,,,,,,,,,,,,,,,,,,,,,,,,,,,,,,,,,,,,,,,,,,,,,,,,,,,,,,,,,,,,,,,,,,,1,0,1,No,No,0,1,Full,0,No,0,0,0,0,CheckSuccess,Record,8064,0,0,0,0,Other,1,GoHome,FALSE,FALSE,FALSE,,,,,,,,,,,,,,,,,,,,,,,,,,,,,,,,,,,,,,,,,,,,,,,,,,,,,,,,,,52,162,0,9464641,,,,1.34E+03,1332084.012,0,0,0,255,37674,25047.48,190,,×2RetÅ°þ3¸´štÉ§t,‘µštÈ¾þ‡ÿ*ó©,LíjâÓ©L,DETAILS.rcSn,DETAILS.batterySn,DETAILS.appType,DETAILS.appVersion,APP_GPS.latitude,APP_GPS.longitude,APP_GPS.accuracy,APP_TIP.tip,APP_WARN.warn,APP_SER_WARN.warn,APP_MESS.message,100,3,-113.6
55:01.8,,,0,0.06,,0,0.15,0,0.06,0,0,59.485149,18.276161,0,25048,0,0,0,3,0,66.4,EngineStart,41,AutoFly,1,FALSE,Ground,TRUE,FALSE,Other,7,TRUE,FALSE,0,P,TRUE,FALSE,FALSE,4,Smart,FALSE,FALSE,FALSE,FALSE,FALSE,FALSE,FALSE,FALSE,13,AppAutoTakeoff,14,None,0,Already,0,FALSE,0,0.1,0.4,1,31,41,MonitorError,0,,0,RC,0,-4,0.1,65.9,YawFollow,2,0,0,-0.6,FALSE,0,FALSE,FALSE,FALSE,FALSE,FALSE,1,FALSE,FALSE,FALSE,97225,,,,,,,,,,,,,,,,,,,,,,,,,,,,,,,,,,,,,,,,,,,,,,,,,,,,,,,,,,,,,,,,,,,,,,,,1,0,1,No,No,0,1,Full,0,No,0,0,0,0,CheckSuccess,Record,8064,0,0,0,0,Other,1,GoHome,FALSE,FALSE,FALSE,,,,,,,,,,,,,,,,,,,,,,,,,,,,,,,,,,,,,,,,,,,,,,,,,,,,,,,,,,52,162,0,9464641,,,,1.34E+03,1332084.012,0,0,0,255,37674,25047.48,190,,×2RetÅ°þ3¸´štÉ§t,‘µštÈ¾þ‡ÿ*ó©,LíjâÓ©L,DETAILS.rcSn,DETAILS.batterySn,DETAILS.appType,DETAILS.appVersion,APP_GPS.latitude,APP_GPS.longitude,APP_GPS.accuracy,APP_TIP.tip,APP_WARN.warn,APP_SER_WARN.warn,APP_MESS.message,100,3,-113.6
55:01.9,,,0,0.08,,0,0.22,0,0.08,0,0,59.485149,18.27616,0,25048,0,0,0,3,0,66.4,EngineStart,41,AutoFly,1,FALSE,Ground,TRUE,FALSE,Other,7,TRUE,FALSE,0,P,TRUE,FALSE,FALSE,4,Smart,FALSE,FALSE,FALSE,FALSE,FALSE,FALSE,FALSE,FALSE,13,AppAutoTakeoff,14,None,0,Already,0,FALSE,0,0.1,0.5,1,31,41,MonitorError,0,,0,RC,0,-4,0.1,65.9,YawFollow,2,0,0,-0.8,FALSE,0,FALSE,FALSE,FALSE,FALSE,FALSE,1,FALSE,FALSE,FALSE,97325,,,,,,,,,,,,,,,,,,,,,,,,,,,,,,,,,,,,,,,,,,,,,,,,,,,,,,,,,,,,,,,,,,,,,,,,1,0,1,No,No,0,1,Full,0,No,0,0,0,0,CheckSuccess,Record,8064,0,0,0,0,Other,1,GoHome,FALSE,FALSE,FALSE,,,,,,,,,,,,,,,,,,,,,,,,,,,,,,,,,,,,,,,,,,,,,,,,,,,,,,,,,,52,162,0,9464641,,,,1.34E+03,1332084.012,0,0,0,255,37674,25047.48,190,,×2RetÅ°þ3¸´štÉ§t,‘µštÈ¾þ‡ÿ*ó©,LíjâÓ©L,DETAILS.rcSn,DETAILS.batterySn,DETAILS.appType,DETAILS.appVersion,APP_GPS.latitude,APP_GPS.longitude,APP_GPS.accuracy,APP_TIP.tip,APP_WARN.warn,APP_SER_WARN.warn,APP_MESS.message,100,3,-113.6
55:02.0,,,0,0.1,,0,0.16,0,0.1,0,0,59.485149,18.27616,0,25048,0,0,0,3,0,66.4,EngineStart,41,AutoFly,1,FALSE,Ground,TRUE,FALSE,Other,7,TRUE,FALSE,0,P,TRUE,FALSE,FALSE,4,Smart,FALSE,FALSE,FALSE,FALSE,FALSE,FALSE,FALSE,FALSE,13,AppAutoTakeoff,14,None,0,Already,0,FALSE,0,0.1,0.6,1,31,41,MonitorError,0,,0,RC,0,-4,0.1,65.9,YawFollow,2,0,0,-0.8,FALSE,0,FALSE,FALSE,FALSE,FALSE,FALSE,1,FALSE,FALSE,FALSE,97425,,,,,,,,,,,,,,,,,,,,,,,,,4.028,4.028,4.025,4.023,,,,,,,,,,,,,,,,,,,,,,,,,,,,,,,,,,,,,,,,,,,,1,0,1,No,No,0,1,Full,0,No,0,0,0,0,CheckSuccess,Record,8064,0,0,0,0,Other,1,GoHome,FALSE,FALSE,FALSE,,,,,,,,,,,,,,,,,,,,,,,,,,,,,,,,,,,,,,,,,,,,,,,,,,,,,,,,,,52,162,0,9464641,,,,1.34E+03,1332084.012,0,0,0,255,37674,25047.48,190,,×2RetÅ°þ3¸´štÉ§t,‘µštÈ¾þ‡ÿ*ó©,LíjâÓ©L,DETAILS.rcSn,DETAILS.batterySn,DETAILS.appType,DETAILS.appVersion,APP_GPS.latitude,APP_GPS.longitude,APP_GPS.accuracy,APP_TIP.tip,APP_WARN.warn,APP_SER_WARN.warn,APP_MESS.message,100,3,-113.6
55:02.1,,,0,0.12,,0,0.21,0,0.12,0,0,59.485149,18.27616,0,25048,0,0,0,3,0,66.3,EngineStart,41,AutoFly,1,FALSE,Ground,TRUE,FALSE,Other,7,TRUE,FALSE,0,P,TRUE,FALSE,FALSE,4,Smart,FALSE,FALSE,FALSE,FALSE,FALSE,FALSE,FALSE,FALSE,13,AppAutoTakeoff,14,None,0,Already,0,FALSE,0,0.1,0.7,1,31,41,MonitorError,0,,0,RC,0,-4,0.1,65.9,YawFollow,2,0,0,-0.7,FALSE,0,FALSE,FALSE,FALSE,FALSE,FALSE,1,FALSE,FALSE,FALSE,97525,,,,,,,,,,,,,,,,,,,,,100,1,,,4.028,4.028,4.025,4.023,,,501,13/12/2019,,,,,,,,,,,,,,,,,,,,,,,,,,,,,,,,,,,,,,,,1,0,1,No,No,0,1,Full,0,No,0,0,0,0,CheckSuccess,Record,8064,0,0,0,0,Other,1,GoHome,FALSE,FALSE,FALSE,,,,,,,,,,,,,,,,,,,,,,,,,,,,,,,,,,,,,,,,,,,,,,,,,,,,,,,,,,52,162,0,9464641,,,,1.34E+03,1332084.012,0,0,0,255,37674,25047.48,190,,×2RetÅ°þ3¸´štÉ§t,‘µštÈ¾þ‡ÿ*ó©,LíjâÓ©L,DETAILS.rcSn,DETAILS.batterySn,DETAILS.appType,DETAILS.appVersion,APP_GPS.latitude,APP_GPS.longitude,APP_GPS.accuracy,APP_TIP.tip,APP_WARN.warn,APP_SER_WARN.warn,APP_MESS.message,100,3,-113.7
55:02.2,,,0,0.13,,0,0.12,0,0.13,0,0,59.485149,18.27616,0,25048,0,0,0,3,0,66.4,EngineStart,41,AutoFly,1,FALSE,Ground,TRUE,FALSE,Other,7,TRUE,FALSE,0,P,TRUE,FALSE,FALSE,4,Smart,FALSE,FALSE,FALSE,FALSE,FALSE,FALSE,FALSE,FALSE,13,AppAutoTakeoff,14,None,0,Already,0,FALSE,0,0.1,0.8,1,31,41,MonitorError,0,,0,RC,0,-4,0,65.9,YawFollow,2,0,0,-0.7,FALSE,0,FALSE,FALSE,FALSE,FALSE,FALSE,1,FALSE,FALSE,FALSE,97625,,,,,,,,,,,,,,,,,,,,,100,1,,,4.028,4.028,4.025,4.023,,,501,13/12/2019,,,,,,,,,,,,,,,,,,,,,,,,,,,,,,,,,,,,,,,,1,0,1,No,No,0,1,Full,0,No,0,0,0,0,CheckSuccess,Record,8064,0,0,0,0,Other,1,GoHome,FALSE,FALSE,FALSE,,,,,,,,,,,,,,,,,,,,,,,,,,,,,,,,,,,,,,,,,,,,,,,,,,,,,,,,,,52,162,0,9464641,,,,1.34E+03,1332084.012,0,0,0,255,37674,25047.48,190,,×2RetÅ°þ3¸´štÉ§t,‘µštÈ¾þ‡ÿ*ó©,LíjâÓ©L,DETAILS.rcSn,DETAILS.batterySn,DETAILS.appType,DETAILS.appVersion,APP_GPS.latitude,APP_GPS.longitude,APP_GPS.accuracy,APP_TIP.tip,APP_WARN.warn,APP_SER_WARN.warn,APP_MESS.message,100,3,-113.6
55:02.3,,,0,0.15,,0,0.19,0,0.15,0,0,59.485149,18.276159,0,25048,0,0,0,3,0,66.4,EngineStart,41,AutoFly,1,FALSE,Ground,TRUE,FALSE,Other,7,TRUE,FALSE,0,P,TRUE,FALSE,FALSE,4,Smart,FALSE,FALSE,FALSE,FALSE,FALSE,FALSE,FALSE,FALSE,13,AppAutoTakeoff,14,None,0,Already,0,FALSE,0,0.1,0.9,1,31,41,MonitorError,0,,0,RC,0,-4,0,65.9,YawFollow,2,0,0,-0.7,FALSE,0,FALSE,FALSE,FALSE,FALSE,FALSE,1,FALSE,FALSE,FALSE,97725,,,,,,,,,,,,,,,,,,,,,100,1,,,4.028,4.028,4.025,4.023,,,501,13/12/2019,,,,,,,0,6,0,0,10,5169.86,1325.605,None,0,NonGoHome,0,0,16.006,71,25,FALSE,10,TRUE,0,,,,,,,,,,,,,,,1,0,1,No,No,0,1,Full,0,No,0,0,0,0,CheckSuccess,Record,8064,0,0,0,0,Other,1,GoHome,FALSE,FALSE,FALSE,59.485157,18.276099,84.42,TRUE,1,1,FALSE,FALSE,FALSE,FALSE,0,FALSE,0,FALSE,FALSE,FALSE,CourseLock,30,115.9,0,0,0,22,FALSE,FALSE,FALSE,FALSE,FALSE,FALSE,FALSE,Normal,NonLimit,FALSE,MotorOff,MotorOff,MotorOff,MotorOff,NonConnect,NonConnect,NonConnect,NonConnect,5,,,,,,,,,,,,,,,,52,162,0,9464641,,,,1.34E+03,1332084.012,0,0,0,255,37674,25047.48,190,,×2RetÅ°þ3¸´štÉ§t,‘µštÈ¾þ‡ÿ*ó©,LíjâÓ©L,DETAILS.rcSn,DETAILS.batterySn,DETAILS.appType,DETAILS.appVersion,APP_GPS.latitude,APP_GPS.longitude,APP_GPS.accuracy,APP_TIP.tip,APP_WARN.warn,APP_SER_WARN.warn,APP_MESS.message,100,3,-113.6
55:02.4,,,0,0.17,,0,0.14,3.52,0.17,3.52,0,59.485149,18.276159,0,25048,0,0,0,3,0,66.4,EngineStart,41,AutoFly,1,FALSE,Ground,TRUE,FALSE,Other,7,TRUE,FALSE,0,P,TRUE,FALSE,FALSE,4,Smart,FALSE,FALSE,FALSE,FALSE,FALSE,FALSE,FALSE,FALSE,13,AppAutoTakeoff,14,None,0,Already,0,FALSE,0,0.1,1,1,31,41,MonitorError,0,,0,RC,0,-4,0,65.9,YawFollow,2,0,0,-0.7,FALSE,0,FALSE,FALSE,FALSE,FALSE,FALSE,1,FALSE,FALSE,FALSE,97825,,,,,,,,,,,,,,,,,,,,,100,1,,,4.028,4.028,4.025,4.023,,,501,13/12/2019,,,,,,,0,6,0,0,10,5169.86,1325.605,None,0,NonGoHome,0,0,16.006,71,25,FALSE,10,TRUE,0,,,,,,,,,,,,,,,1,0,1,No,No,0,1,Full,0,No,0,0,0,0,CheckSuccess,Record,8064,0,0,0,0,Other,1,GoHome,FALSE,FALSE,FALSE,59.485157,18.276099,84.42,TRUE,1,1,FALSE,FALSE,FALSE,FALSE,0,FALSE,0,FALSE,FALSE,FALSE,CourseLock,30,115.9,0,0,0,22,FALSE,FALSE,FALSE,FALSE,FALSE,FALSE,FALSE,Normal,NonLimit,FALSE,MotorOff,MotorOff,MotorOff,MotorOff,NonConnect,NonConnect,NonConnect,NonConnect,5,,,,,,,,,,,,,,,,52,162,0,9464641,,,,1.34E+03,1332084.012,0,0,0,255,37674,25047.48,190,,×2RetÅ°þ3¸´štÉ§t,‘µštÈ¾þ‡ÿ*ó©,LíjâÓ©L,DETAILS.rcSn,DETAILS.batterySn,DETAILS.appType,DETAILS.appVersion,APP_GPS.latitude,APP_GPS.longitude,APP_GPS.accuracy,APP_TIP.tip,APP_WARN.warn,APP_SER_WARN.warn,APP_MESS.message,100,3,-113.6
55:02.5,,,0,0.19,,0,0.18,3.5,0.19,3.52,0,59.485149,18.276159,0,25048,0,0,0,2.9,0,66.4,EngineStart,41,AutoFly,1,FALSE,Ground,TRUE,FALSE,Other,7,TRUE,FALSE,0,P,TRUE,FALSE,FALSE,4,Smart,FALSE,FALSE,FALSE,FALSE,FALSE,FALSE,FALSE,FALSE,13,AppAutoTakeoff,14,None,0,Already,0,FALSE,0,0.1,1.1,1,31,41,MonitorError,0,,0,RC,0,-4,0,66,YawFollow,2,0,0,-0.9,FALSE,0,FALSE,FALSE,FALSE,FALSE,FALSE,1,FALSE,FALSE,FALSE,97925,,,,,,,,,,,,,,,,,,,,,100,1,,,4.028,4.028,4.025,4.023,,,501,13/12/2019,,,,,,,0,6,0,0,10,5169.86,1325.605,None,0,NonGoHome,0,0,16.006,71,25,FALSE,10,TRUE,0,,,,,,,,,,,,,,,1,0,1,No,No,0,1,Full,0,No,0,0,0,0,CheckSuccess,Record,8064,0,0,0,0,Other,1,GoHome,FALSE,FALSE,FALSE,59.485157,18.276099,84.42,TRUE,1,1,FALSE,FALSE,FALSE,FALSE,0,FALSE,0,FALSE,FALSE,FALSE,CourseLock,30,115.9,0,0,0,22,FALSE,FALSE,FALSE,FALSE,FALSE,FALSE,FALSE,Normal,NonLimit,FALSE,MotorOff,MotorOff,MotorOff,MotorOff,NonConnect,NonConnect,NonConnect,NonConnect,5,,,,,,,,,,,,,,,,52,162,0,9464641,,,,1.34E+03,1332084.012,0,0,0,255,37674,25047.48,190,,×2RetÅ°þ3¸´štÉ§t,‘µštÈ¾þ‡ÿ*ó©,LíjâÓ©L,DETAILS.rcSn,DETAILS.batterySn,DETAILS.appType,DETAILS.appVersion,APP_GPS.latitude,APP_GPS.longitude,APP_GPS.accuracy,APP_TIP.tip,APP_WARN.warn,APP_SER_WARN.warn,APP_MESS.message,100,2.9,-113.6
55:02.6,,,0,0.22,,0,0.38,3.47,0.22,3.52,0,59.485149,18.276158,0,25048,0,0,0,2.8,0,66.4,AutoTakeoff,11,AutoFly,1,FALSE,Ground,TRUE,FALSE,Other,7,TRUE,FALSE,0,P,TRUE,FALSE,FALSE,4,Smart,FALSE,FALSE,FALSE,FALSE,FALSE,FALSE,FALSE,FALSE,13,AppAutoTakeoff,14,None,0,Already,0,FALSE,0,0.1,1.2,1,31,41,MonitorError,0,,0,RC,0,-4,0,66,YawFollow,2,0,0,-0.7,FALSE,0,FALSE,FALSE,FALSE,FALSE,FALSE,1,FALSE,FALSE,FALSE,98026,,,,,,,,,,,,,,,,,,,,,100,1,,,4.028,4.028,4.025,4.023,,,501,13/12/2019,,,,,,,0,6,0,0,10,5169.86,1325.605,None,0,NonGoHome,0,0,16.006,71,25,FALSE,10,TRUE,0,,,,,,,,,,,,,,,1,0,1,No,No,0,1,Full,0,No,0,0,0,0,CheckSuccess,Record,8064,0,0,0,0,Other,1,GoHome,FALSE,FALSE,FALSE,59.485157,18.276099,84.42,TRUE,1,1,FALSE,FALSE,FALSE,FALSE,0,FALSE,0,FALSE,FALSE,FALSE,CourseLock,30,115.9,0,0,0,22,FALSE,FALSE,FALSE,FALSE,FALSE,FALSE,FALSE,Normal,NonLimit,FALSE,MotorOff,MotorOff,MotorOff,MotorOff,NonConnect,NonConnect,NonConnect,NonConnect,5,,,,,,,,,,,,,,,,52,162,0,9464641,,,,1.34E+03,1332084.012,0,0,0,255,37674,25047.48,190,,×2RetÅ°þ3¸´štÉ§t,‘µštÈ¾þ‡ÿ*ó©,LíjâÓ©L,DETAILS.rcSn,DETAILS.batterySn,DETAILS.appType,DETAILS.appVersion,APP_GPS.latitude,APP_GPS.longitude,APP_GPS.accuracy,APP_TIP.tip,APP_WARN.warn,APP_SER_WARN.warn,APP_MESS.message,100,2.8,-113.6
55:02.7,,,0,0.24,,0,0.19,3.45,0.24,3.52,0,59.485149,18.276158,0,25048,0,0,0,2.8,0,66.3,AutoTakeoff,11,AutoFly,1,FALSE,Ground,TRUE,FALSE,Other,7,TRUE,FALSE,0,P,TRUE,FALSE,FALSE,4,Smart,FALSE,FALSE,FALSE,FALSE,FALSE,FALSE,FALSE,FALSE,13,AppAutoTakeoff,14,None,0,Already,0,FALSE,0,0.1,1.3,1,31,41,MonitorError,0,,0,RC,0,-4,0,66,YawFollow,2,0,0,-0.8,FALSE,0,FALSE,FALSE,FALSE,FALSE,FALSE,1,FALSE,FALSE,FALSE,98126,,,,,,,,,,,,,,,,,,,,,100,1,,,4.028,4.028,4.025,4.023,,,501,13/12/2019,,,,,,,0,6,0,0,10,5169.86,1325.605,None,0,NonGoHome,0,0,16.006,71,25,FALSE,10,TRUE,0,,,,,,,,,,,,,,,1,0,1,No,No,0,1,Full,0,No,0,0,0,0,CheckSuccess,Record,8064,0,0,0,0,Other,1,GoHome,FALSE,FALSE,FALSE,59.485157,18.276099,84.42,TRUE,1,1,FALSE,FALSE,FALSE,FALSE,0,FALSE,0,FALSE,FALSE,FALSE,CourseLock,30,115.9,0,0,0,22,FALSE,FALSE,FALSE,FALSE,FALSE,FALSE,FALSE,Normal,NonLimit,FALSE,MotorOff,MotorOff,MotorOff,MotorOff,NonConnect,NonConnect,NonConnect,NonConnect,5,,,,,,,,,,,,,,,,52,162,0,9464641,,,,1.34E+03,1332084.012,0,0,0,255,37674,25047.48,190,,×2RetÅ°þ3¸´štÉ§t,‘µštÈ¾þ‡ÿ*ó©,LíjâÓ©L,DETAILS.rcSn,DETAILS.batterySn,DETAILS.appType,DETAILS.appVersion,APP_GPS.latitude,APP_GPS.longitude,APP_GPS.accuracy,APP_TIP.tip,APP_WARN.warn,APP_SER_WARN.warn,APP_MESS.message,100,2.8,-113.7
55:02.8,,,0,0.27,,0,0.28,3.42,0.27,3.52,0,59.485149,18.276157,0,25048,0,0,0,2.8,0,66.3,AutoTakeoff,11,AutoFly,1,FALSE,Ground,TRUE,FALSE,Other,7,TRUE,FALSE,0,P,TRUE,FALSE,FALSE,4,Smart,FALSE,FALSE,FALSE,FALSE,FALSE,FALSE,FALSE,FALSE,13,AppAutoTakeoff,14,None,0,Already,0,FALSE,0,0.1,1.4,1,31,41,MonitorError,0,,0,RC,0,-4,0,66,YawFollow,2,0,0,-0.7,FALSE,0,FALSE,FALSE,FALSE,FALSE,FALSE,1,FALSE,FALSE,FALSE,98226,,,,,,,,,,,,,,,,,,,,,100,1,,,4.028,4.028,4.025,4.023,,,501,13/12/2019,,,,,,,0,6,0,0,10,5169.86,1325.605,None,0,NonGoHome,0,0,16.006,71,25,FALSE,10,TRUE,0,,,,,,,,,,,,,,,1,0,1,No,No,0,1,Full,0,No,0,0,0,0,CheckSuccess,Record,8064,0,0,0,0,Other,1,GoHome,FALSE,FALSE,FALSE,59.485157,18.276099,84.42,TRUE,1,1,FALSE,FALSE,FALSE,FALSE,0,FALSE,0,FALSE,FALSE,FALSE,CourseLock,30,115.9,0,0,0,22,FALSE,FALSE,FALSE,FALSE,FALSE,FALSE,FALSE,Normal,NonLimit,FALSE,MotorOff,MotorOff,MotorOff,MotorOff,NonConnect,NonConnect,NonConnect,NonConnect,5,,,,,,,,,,,,,,,,52,162,0,9464641,,,,1.34E+03,1332084.012,0,0,0,255,37674,25047.48,190,,×2RetÅ°þ3¸´štÉ§t,‘µštÈ¾þ‡ÿ*ó©,LíjâÓ©L,DETAILS.rcSn,DETAILS.batterySn,DETAILS.appType,DETAILS.appVersion,APP_GPS.latitude,APP_GPS.longitude,APP_GPS.accuracy,APP_TIP.tip,APP_WARN.warn,APP_SER_WARN.warn,APP_MESS.message,100,2.8,-113.7
55:02.9,,,0,0.29,,0,0.2,3.4,0.29,3.52,0,59.485149,18.276157,0,25048,0,0,0,2.8,0,66.3,AutoTakeoff,11,AutoFly,1,FALSE,Ground,TRUE,FALSE,Other,7,TRUE,FALSE,0,P,TRUE,FALSE,FALSE,4,Smart,FALSE,FALSE,FALSE,FALSE,FALSE,FALSE,FALSE,FALSE,13,AppAutoTakeoff,14,None,0,Already,0,FALSE,0,0.1,1.5,1,31,41,MonitorError,0,,0,RC,0,-4,0,66,YawFollow,2,0,0,-0.8,FALSE,0,FALSE,FALSE,FALSE,FALSE,FALSE,1,FALSE,FALSE,FALSE,98426,,,,,,,,,,,,,,,,,,,,,100,1,,,4.028,4.028,4.025,4.023,,,501,13/12/2019,,,,,,,0,6,0,0,10,5169.86,1325.605,None,0,NonGoHome,0,0,16.006,71,25,FALSE,10,TRUE,0,,,,,,,,,,,,,,,1,0,1,No,No,0,1,Full,0,No,0,0,0,0,CheckSuccess,Record,8064,0,0,0,0,Other,1,GoHome,FALSE,FALSE,FALSE,59.485157,18.276099,84.42,TRUE,1,1,FALSE,FALSE,FALSE,FALSE,0,FALSE,0,FALSE,FALSE,FALSE,CourseLock,30,115.9,0,0,0,22,FALSE,FALSE,FALSE,FALSE,FALSE,FALSE,FALSE,Normal,NonLimit,FALSE,MotorOff,MotorOff,MotorOff,MotorOff,NonConnect,NonConnect,NonConnect,NonConnect,5,,,,,,,,,,,,,,,,52,162,0,9464641,,,,1.34E+03,1332084.012,0,0,0,255,37674,25047.48,190,,×2RetÅ°þ3¸´štÉ§t,‘µštÈ¾þ‡ÿ*ó©,LíjâÓ©L,DETAILS.rcSn,DETAILS.batterySn,DETAILS.appType,DETAILS.appVersion,APP_GPS.latitude,APP_GPS.longitude,APP_GPS.accuracy,APP_TIP.tip,APP_WARN.warn,APP_SER_WARN.warn,APP_MESS.message,100,2.8,-113.7
55:03.0,,,0,0.32,,0,0.29,3.38,0.32,3.52,0,59.485149,18.276157,0,25048,0,0,0,2.7,0,66.2,AutoTakeoff,11,AutoFly,1,FALSE,Ground,TRUE,FALSE,Other,7,TRUE,FALSE,0,P,TRUE,FALSE,FALSE,4,Smart,FALSE,FALSE,FALSE,FALSE,FALSE,FALSE,FALSE,FALSE,13,AppAutoTakeoff,14,None,0,Already,0,FALSE,0,0.1,1.6,1,31,41,MonitorError,0,,0,RC,0,-4,0,66,YawFollow,2,0,0,-0.8,FALSE,0,FALSE,FALSE,FALSE,FALSE,FALSE,1,FALSE,FALSE,FALSE,98426,,,,,,,,,,,,,,,,,,,,,100,1,,,3.966,3.966,3.96,3.953,,,501,13/12/2019,,,,,,,0,6,0,0,10,5169.86,1325.605,None,0,NonGoHome,0,0,16.006,71,25,FALSE,10,TRUE,0,,,,,,,,,,,,,,,1,0,1,No,No,0,1,Full,0,No,0,0,0,0,CheckSuccess,Record,8064,0,0,0,0,Other,1,GoHome,FALSE,FALSE,FALSE,59.485157,18.276099,84.42,TRUE,1,1,FALSE,FALSE,FALSE,FALSE,0,FALSE,0,FALSE,FALSE,FALSE,CourseLock,30,115.9,0,0,0,22,FALSE,FALSE,FALSE,FALSE,FALSE,FALSE,FALSE,Normal,NonLimit,FALSE,MotorOff,MotorOff,MotorOff,MotorOff,NonConnect,NonConnect,NonConnect,NonConnect,5,,,,,,,,,,,,,,,,52,162,0,9464641,,,,1.34E+03,1332084.012,0,0,0,255,37674,25047.48,190,,×2RetÅ°þ3¸´štÉ§t,‘µštÈ¾þ‡ÿ*ó©,LíjâÓ©L,DETAILS.rcSn,DETAILS.batterySn,DETAILS.appType,DETAILS.appVersion,APP_GPS.latitude,APP_GPS.longitude,APP_GPS.accuracy,APP_TIP.tip,APP_WARN.warn,APP_SER_WARN.warn,APP_MESS.message,100,2.7,-113.8
55:03.1,,,0,0.34,,0,0.2,3.36,0.34,3.52,0,59.485149,18.276156,0,25048,0,0,0,2.6,0,66.2,AutoTakeoff,11,AutoFly,1,FALSE,Ground,TRUE,FALSE,Other,7,TRUE,FALSE,0,P,TRUE,FALSE,FALSE,4,Smart,FALSE,FALSE,FALSE,FALSE,FALSE,FALSE,FALSE,FALSE,13,AppAutoTakeoff,14,None,0,Already,0,FALSE,0,0.1,1.7,1,31,41,MonitorError,0,,0,RC,0,-4,0,66,YawFollow,2,0,0,-0.5,FALSE,0,FALSE,FALSE,FALSE,FALSE,FALSE,1,FALSE,FALSE,FALSE,98526,,,,,,,,,,,,,,,,,,,,,100,1,,,3.966,3.966,3.96,3.953,,,501,13/12/2019,,,,,,,0,6,0,0,10,5169.86,1325.605,None,0,NonGoHome,0,0,16.006,71,25,FALSE,10,TRUE,0,,,,,,,,,,,,,,,1,0,1,No,No,0,1,Full,0,No,0,0,0,0,CheckSuccess,Record,8064,0,0,0,0,Other,1,GoHome,FALSE,FALSE,FALSE,59.485157,18.276099,84.42,TRUE,1,1,FALSE,FALSE,FALSE,FALSE,0,FALSE,0,FALSE,FALSE,FALSE,CourseLock,30,115.9,0,0,0,22,FALSE,FALSE,FALSE,FALSE,FALSE,FALSE,FALSE,Normal,NonLimit,FALSE,MotorOff,MotorOff,MotorOff,MotorOff,NonConnect,NonConnect,NonConnect,NonConnect,5,,,,,,,,,,,,,,,,52,162,0,9464641,,,,1.34E+03,1332084.012,0,0,0,255,37674,25047.48,190,,×2RetÅ°þ3¸´štÉ§t,‘µštÈ¾þ‡ÿ*ó©,LíjâÓ©L,DETAILS.rcSn,DETAILS.batterySn,DETAILS.appType,DETAILS.appVersion,APP_GPS.latitude,APP_GPS.longitude,APP_GPS.accuracy,APP_TIP.tip,APP_WARN.warn,APP_SER_WARN.warn,APP_MESS.message,100,2.6,-113.8
55:03.2,,,0,0.38,,0,0.35,3.33,0.38,3.52,0,59.485149,18.276156,0,25048,0,0,0,2.6,0,66.1,AutoTakeoff,11,AutoFly,1,FALSE,Ground,TRUE,FALSE,Other,7,TRUE,FALSE,0,P,TRUE,FALSE,FALSE,4,Smart,FALSE,FALSE,FALSE,FALSE,FALSE,FALSE,FALSE,FALSE,13,AppAutoTakeoff,14,None,0,Already,0,FALSE,0,0.1,1.8,1,31,41,MonitorError,0,,0,RC,0,-4,0,66,YawFollow,2,0,0,-0.6,FALSE,0,FALSE,FALSE,FALSE,FALSE,FALSE,1,FALSE,FALSE,FALSE,98626,,,,,,,,,,,,,,,,,,,,,100,1,,,3.966,3.966,3.96,3.953,,,501,13/12/2019,,,,,,,0,6,0,0,10,5169.86,1325.605,None,0,NonGoHome,0,0,16.006,71,25,FALSE,10,TRUE,0,,,,,,,,,,,,,,,1,0,1,No,No,0,1,Full,0,No,0,0,0,0,CheckSuccess,Record,8064,0,0,0,0,Other,1,GoHome,FALSE,FALSE,FALSE,59.485157,18.276099,84.42,TRUE,1,1,FALSE,FALSE,FALSE,FALSE,0,FALSE,0,FALSE,FALSE,FALSE,CourseLock,30,115.9,0,0,0,22,FALSE,FALSE,FALSE,FALSE,FALSE,FALSE,FALSE,Normal,NonLimit,FALSE,MotorOff,MotorOff,MotorOff,MotorOff,NonConnect,NonConnect,NonConnect,NonConnect,5,,,,,,,,,,,,,,,,52,162,0,9464641,,,,1.34E+03,1332084.012,0,0,0,255,37674,25047.48,190,,×2RetÅ°þ3¸´štÉ§t,‘µštÈ¾þ‡ÿ*ó©,LíjâÓ©L,DETAILS.rcSn,DETAILS.batterySn,DETAILS.appType,DETAILS.appVersion,APP_GPS.latitude,APP_GPS.longitude,APP_GPS.accuracy,APP_TIP.tip,APP_WARN.warn,APP_SER_WARN.warn,APP_MESS.message,100,2.6,-113.9
55:03.3,,,0,0.4,,0,0.21,3.31,0.4,3.52,0,59.485149,18.276155,0,25048,0,0,0,1.8,0,65.9,AutoTakeoff,11,AutoFly,1,FALSE,Ground,TRUE,FALSE,Other,7,TRUE,FALSE,0,P,TRUE,FALSE,FALSE,4,Smart,FALSE,FALSE,FALSE,FALSE,FALSE,FALSE,FALSE,FALSE,13,AppAutoTakeoff,14,None,0,Already,0,FALSE,0,0.1,1.9,1,31,41,MonitorError,0,,0,RC,0,-4,0,66,YawFollow,2,0,0,-0.5,FALSE,0,FALSE,FALSE,FALSE,FALSE,FALSE,1,FALSE,FALSE,FALSE,98725,,,,,,,,,,,,,,,,,,,,,100,1,,,3.966,3.966,3.96,3.953,,,501,13/12/2019,,,,,,,0,5,0,0,10,5676.71,1455.566,None,0,NonGoHome,0,0,15.878,71,25,FALSE,10,TRUE,0,,,,,,,,,,,,,,,1,0,1,No,No,0,1,Full,0,No,0,0,0,0,CheckSuccess,Record,8064,0,0,0,0,Other,1,GoHome,FALSE,FALSE,FALSE,59.485157,18.276099,84.42,TRUE,1,1,FALSE,FALSE,FALSE,FALSE,0,FALSE,0,FALSE,FALSE,FALSE,CourseLock,30,115.9,0,0,0,22,FALSE,FALSE,FALSE,FALSE,FALSE,FALSE,FALSE,Normal,NonLimit,FALSE,MotorOff,MotorOff,MotorOff,MotorOff,NonConnect,NonConnect,NonConnect,NonConnect,5,,,,,,,,,,,,,,,,52,162,0,9464641,,,,1.34E+03,1332084.012,0,0,0,255,37674,25047.48,190,,×2RetÅ°þ3¸´štÉ§t,‘µštÈ¾þ‡ÿ*ó©,LíjâÓ©L,DETAILS.rcSn,DETAILS.batterySn,DETAILS.appType,DETAILS.appVersion,APP_GPS.latitude,APP_GPS.longitude,APP_GPS.accuracy,APP_TIP.tip,APP_WARN.warn,APP_SER_WARN.warn,APP_MESS.message,100,1.8,-114.1
55:03.4,,,0,0.42,,0,0.17,3.29,0.42,3.52,0,59.485149,18.276155,0,25048,0,0,0,-1.1,0,65.9,AutoTakeoff,11,AutoFly,1,FALSE,Ground,TRUE,FALSE,Other,7,TRUE,FALSE,0,P,TRUE,FALSE,FALSE,4,Smart,FALSE,FALSE,FALSE,FALSE,FALSE,FALSE,FALSE,FALSE,13,AppAutoTakeoff,14,None,0,Already,0,FALSE,0,0.1,2,1,31,41,MonitorError,0,,0,RC,0,-4,0,66,YawFollow,2,0,0,-0.1,FALSE,0,FALSE,FALSE,FALSE,FALSE,FALSE,1,FALSE,FALSE,FALSE,98825,,,,,,,,,,,,,,,,,,,,,100,1,,,3.966,3.966,3.96,3.953,,,501,13/12/2019,,,,,,,0,5,0,0,10,5676.71,1455.566,None,0,NonGoHome,0,0,15.878,71,25,FALSE,10,TRUE,0,,,,,,,,,,,,,,,1,0,1,No,No,0,1,Full,0,No,0,0,0,0,CheckSuccess,Record,8064,0,0,0,0,Other,1,GoHome,FALSE,FALSE,FALSE,59.485157,18.276099,84.42,TRUE,1,1,FALSE,FALSE,FALSE,FALSE,0,FALSE,0,FALSE,FALSE,FALSE,CourseLock,30,115.9,0,0,0,22,FALSE,FALSE,FALSE,FALSE,FALSE,FALSE,FALSE,Normal,NonLimit,FALSE,MotorOff,MotorOff,MotorOff,MotorOff,NonConnect,NonConnect,NonConnect,NonConnect,5,,,,,,,,,,,,,,,,52,162,0,9464641,,,,1.34E+03,1332084.012,0,0,0,255,37674,25047.48,190,,×2RetÅ°þ3¸´štÉ§t,‘µštÈ¾þ‡ÿ*ó©,LíjâÓ©L,DETAILS.rcSn,DETAILS.batterySn,DETAILS.appType,DETAILS.appVersion,APP_GPS.latitude,APP_GPS.longitude,APP_GPS.accuracy,APP_TIP.tip,APP_WARN.warn,APP_SER_WARN.warn,APP_MESS.message,100,1.1,65.9
55:03.5,,,0,0.43,,0,0.18,3.27,0.43,3.52,0,59.485149,18.276155,0,25048,0,0,-0.1,-3.8,0,65.7,AutoTakeoff,11,AutoFly,1,FALSE,Ground,TRUE,FALSE,Other,7,TRUE,FALSE,0,P,TRUE,FALSE,FALSE,4,Smart,FALSE,FALSE,FALSE,FALSE,FALSE,FALSE,FALSE,FALSE,13,AppAutoTakeoff,14,None,0,Already,0,FALSE,0,0.1,2.1,1,31,41,MonitorError,0,,0,RC,0,-4,0,66,YawFollow,2,0,0,0,FALSE,0,FALSE,FALSE,FALSE,FALSE,FALSE,1,FALSE,FALSE,FALSE,98925,,,,,,,,,,,,,,,,,,,,,100,1,,,3.966,3.966,3.96,3.953,,,501,13/12/2019,,,,,,,0,5,0,0,10,5676.71,1455.566,None,0,NonGoHome,0,0,15.878,71,25,FALSE,10,TRUE,0,,,,,,,,,,,,,,,1,0,1,No,No,0,1,Full,0,No,0,0,0,0,CheckSuccess,Record,8064,0,0,0,0,Other,1,GoHome,FALSE,FALSE,FALSE,59.485157,18.276099,84.42,TRUE,1,1,FALSE,FALSE,FALSE,FALSE,0,FALSE,0,FALSE,FALSE,FALSE,CourseLock,30,115.9,0,0,0,22,FALSE,FALSE,FALSE,FALSE,FALSE,FALSE,FALSE,Normal,NonLimit,FALSE,MotorOff,MotorOff,MotorOff,MotorOff,NonConnect,NonConnect,NonConnect,NonConnect,5,,,,,,,,,,,,,,,,52,162,0,9464641,,,,1.34E+03,1332084.012,0,0,0,255,37674,25047.48,190,,×2RetÅ°þ3¸´štÉ§t,‘µštÈ¾þ‡ÿ*ó©,LíjâÓ©L,DETAILS.rcSn,DETAILS.batterySn,DETAILS.appType,DETAILS.appVersion,APP_GPS.latitude,APP_GPS.longitude,APP_GPS.accuracy,APP_TIP.tip,APP_WARN.warn,APP_SER_WARN.warn,APP_MESS.message,100,3.8,65.7
55:03.6,,,0.1,0.46,,0.1,0.2,3.26,0.46,3.52,0,59.485149,18.276154,0,25048,0,0.1,-0.2,-3.2,0,65.5,AutoTakeoff,11,AutoFly,1,FALSE,Sky,TRUE,FALSE,Other,7,TRUE,FALSE,0,P,TRUE,FALSE,FALSE,4,Smart,FALSE,FALSE,FALSE,FALSE,FALSE,FALSE,FALSE,FALSE,13,AppAutoTakeoff,14,None,0,Already,0,FALSE,0,0.1,2.2,1,31,41,MonitorError,0,,0,RC,0,-4,0,66,YawFollow,2,0,0,0,FALSE,0,FALSE,FALSE,FALSE,FALSE,FALSE,1,FALSE,FALSE,FALSE,99025,,,,,,,,,,,,,,,,,,,,,100,1,,,3.966,3.966,3.96,3.953,,,501,13/12/2019,,,,,,,0,5,0,0,10,5676.71,1455.566,None,0,NonGoHome,0,0,15.878,71,25,FALSE,10,TRUE,0,,,,,,,,,,,,,,,1,0,1,No,No,0,1,Full,0,No,0,0,0,0,CheckSuccess,Record,8064,0,0,0,0,Other,1,GoHome,FALSE,FALSE,FALSE,59.485157,18.276099,84.42,TRUE,1,1,FALSE,FALSE,FALSE,FALSE,0,FALSE,0,FALSE,FALSE,FALSE,CourseLock,30,115.9,0,0,0,22,FALSE,FALSE,FALSE,FALSE,FALSE,FALSE,FALSE,Normal,NonLimit,FALSE,MotorOff,MotorOff,MotorOff,MotorOff,NonConnect,NonConnect,NonConnect,NonConnect,5,,,,,,,,,,,,,,,,52,162,0,9464641,,,,1.34E+03,1332084.012,0,0,0,255,37674,25047.48,190,,×2RetÅ°þ3¸´štÉ§t,‘µštÈ¾þ‡ÿ*ó©,LíjâÓ©L,DETAILS.rcSn,DETAILS.batterySn,DETAILS.appType,DETAILS.appVersion,APP_GPS.latitude,APP_GPS.longitude,APP_GPS.accuracy,APP_TIP.tip,APP_WARN.warn,APP_SER_WARN.warn,APP_MESS.message,100,3.2,65.5
55:03.7,,,0.1,0.46,,0.1,0.07,3.25,0.46,3.52,0,59.485149,18.276154,0,25048,0,0.1,-0.3,-0.8,-0.4,65.5,AutoTakeoff,11,AutoFly,1,FALSE,Sky,TRUE,FALSE,Other,7,TRUE,FALSE,0,P,TRUE,FALSE,FALSE,4,Smart,FALSE,FALSE,FALSE,FALSE,FALSE,FALSE,FALSE,FALSE,13,AppAutoTakeoff,14,None,0,Already,0,FALSE,0,0.1,2.3,1,31,41,MonitorError,0,,0,RC,0,-4,0,66,YawFollow,2,0,0,0.2,FALSE,0,FALSE,FALSE,FALSE,FALSE,FALSE,1,FALSE,FALSE,FALSE,99125,,,,,,,,,,,,,,,,,,,,,100,1,,,3.966,3.966,3.96,3.953,,,501,13/12/2019,,,,,,,0,5,0,0,10,5676.71,1455.566,None,0,NonGoHome,0,0,15.878,71,25,FALSE,10,TRUE,0,,,,,,,,,,,,,,,1,0,1,No,No,0,1,Full,0,No,0,0,0,0,CheckSuccess,Record,8064,0,0,0,0,Other,1,GoHome,FALSE,FALSE,FALSE,59.485157,18.276099,84.42,TRUE,1,1,FALSE,FALSE,FALSE,FALSE,0,FALSE,0,FALSE,FALSE,FALSE,CourseLock,30,115.9,0,0,0,22,FALSE,FALSE,FALSE,FALSE,FALSE,FALSE,FALSE,Normal,NonLimit,FALSE,MotorOff,MotorOff,MotorOff,MotorOff,NonConnect,NonConnect,NonConnect,NonConnect,5,,,,,,,,,,,,,,,,52,162,0,9464641,,,,1.34E+03,1332084.012,0,0,0,255,37674,25047.48,190,,×2RetÅ°þ3¸´štÉ§t,‘µštÈ¾þ‡ÿ*ó©,LíjâÓ©L,DETAILS.rcSn,DETAILS.batterySn,DETAILS.appType,DETAILS.appVersion,APP_GPS.latitude,APP_GPS.longitude,APP_GPS.accuracy,APP_TIP.tip,APP_WARN.warn,APP_SER_WARN.warn,APP_MESS.message,100,0.894403944,38.93606588
55:03.8,,,0.1,0.48,,0.1,0.16,3.24,0.48,3.52,0.1,59.485149,18.276154,0.1,25048,0,0.1,-0.4,1,-0.6,65.4,AutoTakeoff,11,AutoFly,1,FALSE,Sky,TRUE,FALSE,Other,7,TRUE,FALSE,0,P,TRUE,FALSE,FALSE,4,Smart,FALSE,FALSE,FALSE,FALSE,FALSE,FALSE,FALSE,FALSE,13,AppAutoTakeoff,14,None,0,Already,0,FALSE,0,0.1,2.4,1,31,41,MonitorError,0,,0,RC,0,-4,0,66,YawFollow,2,0,0,0.2,FALSE,0,FALSE,FALSE,FALSE,FALSE,FALSE,1,FALSE,FALSE,FALSE,99225,,,,,,,,,,,,,,,,,,,,,100,1,,,3.966,3.966,3.96,3.953,,,501,13/12/2019,,,,,,,0,5,0,0,10,5676.71,1455.566,None,0,NonGoHome,0,0,15.878,71,25,FALSE,10,TRUE,0,,,,,,,,,,,,,,,1,0,1,No,No,0,1,Full,0,No,0,0,0,0,CheckSuccess,Record,8064,0,0,0,0,Other,1,GoHome,FALSE,FALSE,FALSE,59.485157,18.276099,84.42,TRUE,1,1,FALSE,FALSE,FALSE,FALSE,0,FALSE,0,FALSE,FALSE,FALSE,CourseLock,30,115.9,0,0,0,22,FALSE,FALSE,FALSE,FALSE,FALSE,FALSE,FALSE,Normal,NonLimit,FALSE,MotorOff,MotorOff,MotorOff,MotorOff,NonConnect,NonConnect,NonConnect,NonConnect,5,,,,,,,,,,,,,,,,52,162,0,9464641,,,,1.34E+03,1332084.012,0,0,0,255,37674,25047.48,190,,×2RetÅ°þ3¸´štÉ§t,‘µštÈ¾þ‡ÿ*ó©,LíjâÓ©L,DETAILS.rcSn,DETAILS.batterySn,DETAILS.appType,DETAILS.appVersion,APP_GPS.latitude,APP_GPS.longitude,APP_GPS.accuracy,APP_TIP.tip,APP_WARN.warn,APP_SER_WARN.warn,APP_MESS.message,100,1.1661277,-83.63788626
55:03.9,,,0.1,0.49,,0.1,0.08,3.24,0.49,3.52,0.1,59.485149,18.276154,0.1,25048,0,0.1,-0.4,1.6,-0.5,65.4,AutoTakeoff,11,AutoFly,1,FALSE,Sky,TRUE,TRUE,Other,7,TRUE,FALSE,0,P,TRUE,FALSE,FALSE,4,Smart,FALSE,FALSE,FALSE,FALSE,FALSE,FALSE,FALSE,FALSE,13,AppAutoTakeoff,14,None,0,Already,0,FALSE,0,0.2,2.5,1,31,41,MonitorError,0,,0,RC,0,-4,0,66,YawFollow,2,0,0,0.1,FALSE,0,FALSE,FALSE,FALSE,FALSE,FALSE,1,FALSE,FALSE,FALSE,99325,,,,,,,,,,,,,,,,,,,,,100,1,,,3.966,3.966,3.96,3.953,,,501,13/12/2019,,,,,,,0,5,0,0,10,5676.71,1455.566,None,0,NonGoHome,0,0,15.878,71,25,FALSE,10,TRUE,0,,,,,,,,,,,,,,,1,0,1,No,No,0,1,Full,0,No,0,0,0,0,CheckSuccess,Record,8064,0,0,0,0,Other,1,GoHome,FALSE,FALSE,FALSE,59.485157,18.276099,84.42,TRUE,1,1,FALSE,FALSE,FALSE,FALSE,0,FALSE,0,FALSE,FALSE,FALSE,CourseLock,30,115.9,0,0,0,22,FALSE,FALSE,FALSE,FALSE,FALSE,FALSE,FALSE,Normal,NonLimit,FALSE,MotorOff,MotorOff,MotorOff,MotorOff,NonConnect,NonConnect,NonConnect,NonConnect,5,,,,,,,,,,,,,,,,52,162,0,9464641,,,,1.34E+03,1332084.012,0,0,0,255,37674,25047.48,190,,×2RetÅ°þ3¸´štÉ§t,‘µštÈ¾þ‡ÿ*ó©,LíjâÓ©L,DETAILS.rcSn,DETAILS.batterySn,DETAILS.appType,DETAILS.appVersion,APP_GPS.latitude,APP_GPS.longitude,APP_GPS.accuracy,APP_TIP.tip,APP_WARN.warn,APP_SER_WARN.warn,APP_MESS.message,100,1.676227958,-97.24980182
55:04.0,,,0,0.54,,0.1,0.46,3.19,0.54,3.52,0.1,59.485149,18.276153,0.1,25048,0,0,-0.4,1.5,-0.4,65.3,AutoTakeoff,11,AutoFly,1,FALSE,Sky,TRUE,TRUE,Other,7,TRUE,FALSE,0,P,TRUE,FALSE,FALSE,4,Smart,FALSE,FALSE,FALSE,FALSE,FALSE,FALSE,FALSE,FALSE,13,AppAutoTakeoff,14,None,0,Already,0,FALSE,0,0.2,2.6,1,31,41,MonitorError,0,,0,RC,0,-4,0,66,YawFollow,2,0,0,0.4,FALSE,0,FALSE,FALSE,FALSE,FALSE,FALSE,1,FALSE,FALSE,FALSE,99425,,,,,,,,,,,,,,,,,,,,,100,1,,,3.966,3.966,3.96,3.953,,,501,13/12/2019,,,,,,,0,5,0,0,10,5676.71,1455.566,None,0,NonGoHome,0,0,15.878,71,25,FALSE,10,TRUE,0,,,,,,,,,,,,,,,1,0,1,No,No,0,1,Full,0,No,0,0,0,0,CheckSuccess,Record,8064,0,0,0,0,Other,1,GoHome,FALSE,FALSE,FALSE,59.485157,18.276099,84.42,TRUE,1,1,FALSE,FALSE,FALSE,FALSE,0,FALSE,0,FALSE,FALSE,FALSE,CourseLock,30,115.9,0,0,0,22,FALSE,FALSE,FALSE,FALSE,FALSE,FALSE,FALSE,Normal,NonLimit,FALSE,MotorOff,MotorOff,MotorOff,MotorOff,NonConnect,NonConnect,NonConnect,NonConnect,5,,,,,,,,,,,,,,,,52,162,0,9464641,,,,1.34E+03,1332084.012,0,0,0,255,37674,25047.48,190,,×2RetÅ°þ3¸´štÉ§t,‘µštÈ¾þ‡ÿ*ó©,LíjâÓ©L,DETAILS.rcSn,DETAILS.batterySn,DETAILS.appType,DETAILS.appVersion,APP_GPS.latitude,APP_GPS.longitude,APP_GPS.accuracy,APP_TIP.tip,APP_WARN.warn,APP_SER_WARN.warn,APP_MESS.message,100,1.552370392,-99.77161023
55:04.1,,,0,0.55,,0.1,0.18,3.18,0.56,3.52,0.2,59.485149,18.276153,0.2,25048,0,0,-0.4,1.3,-0.4,65.3,AutoTakeoff,11,AutoFly,1,FALSE,Sky,TRUE,TRUE,Other,7,TRUE,FALSE,0,P,TRUE,FALSE,FALSE,4,Smart,FALSE,FALSE,FALSE,FALSE,FALSE,FALSE,FALSE,FALSE,13,AppAutoTakeoff,14,None,0,Already,0,FALSE,0,0.3,2.7,1,31,41,MonitorError,0,,0,RC,0,-4,0,65.9,YawFollow,2,0,0,0.2,FALSE,0,FALSE,FALSE,FALSE,FALSE,FALSE,1,FALSE,FALSE,FALSE,99525,,,,,,,,,,,,,,,,,,,,,100,1,,,3.98,3.978,3.977,3.971,,,501,13/12/2019,,,,,,,0,5,0,0,10,5676.71,1455.566,None,0,NonGoHome,0,0,15.878,71,25,FALSE,10,TRUE,0,,,,,,,,,,,,,,,1,0,1,No,No,0,1,Full,0,No,0,0,0,0,CheckSuccess,Record,8064,0,0,0,0,Other,1,GoHome,FALSE,FALSE,FALSE,59.485157,18.276099,84.42,TRUE,1,1,FALSE,FALSE,FALSE,FALSE,0,FALSE,0,FALSE,FALSE,FALSE,CourseLock,30,115.9,0,0,0,22,FALSE,FALSE,FALSE,FALSE,FALSE,FALSE,FALSE,Normal,NonLimit,FALSE,MotorOff,MotorOff,MotorOff,MotorOff,NonConnect,NonConnect,NonConnect,NonConnect,5,,,,,,,,,,,,,,,,52,162,0,9464641,,,,1.34E+03,1332084.012,0,0,0,255,37674,25047.48,190,,×2RetÅ°þ3¸´štÉ§t,‘µštÈ¾þ‡ÿ*ó©,LíjâÓ©L,DETAILS.rcSn,DETAILS.batterySn,DETAILS.appType,DETAILS.appVersion,APP_GPS.latitude,APP_GPS.longitude,APP_GPS.accuracy,APP_TIP.tip,APP_WARN.warn,APP_SER_WARN.warn,APP_MESS.message,100,1.360106689,-97.59977315
55:04.2,,,0,0.71,,0.1,1.5,3.06,0.71,3.52,0.2,59.485148,18.27615,0.2,25048,0,0,-0.4,0.8,-0.7,65.3,AutoTakeoff,11,AutoFly,1,FALSE,Sky,TRUE,TRUE,Other,7,TRUE,FALSE,0,P,TRUE,FALSE,FALSE,4,Smart,FALSE,FALSE,FALSE,FALSE,FALSE,FALSE,FALSE,FALSE,12,AppAutoTakeoff,14,None,0,Already,0,FALSE,0,0.3,2.8,1,31,41,MonitorError,0,,0,RC,0,-4,0,65.9,YawFollow,2,0,0,0,FALSE,0,FALSE,FALSE,FALSE,FALSE,FALSE,1,FALSE,FALSE,FALSE,99625,,,,,,,,,,,,,,,,,,,,,100,1,,,3.98,3.978,3.977,3.971,,,501,13/12/2019,,,,,,,0,5,0,0,10,5676.71,1455.566,None,0,NonGoHome,0,0,15.878,71,25,FALSE,10,TRUE,0,,,,,,,,,,,,,,,1,0,1,No,No,0,1,Full,0,No,0,0,0,0,CheckSuccess,Record,8064,0,0,0,0,Other,1,GoHome,FALSE,FALSE,FALSE,59.485157,18.276099,84.42,TRUE,1,1,FALSE,FALSE,FALSE,FALSE,0,FALSE,0,FALSE,FALSE,FALSE,CourseLock,30,115.9,0,0,0,22,FALSE,FALSE,FALSE,FALSE,FALSE,FALSE,FALSE,Normal,NonLimit,FALSE,MotorOff,MotorOff,MotorOff,MotorOff,NonConnect,NonConnect,NonConnect,NonConnect,5,,,,,,,,,,,,,,,,52,162,0,9464641,,,,1.34E+03,1332084.012,0,0,0,255,37674,25047.48,190,,×2RetÅ°þ3¸´štÉ§t,‘µštÈ¾þ‡ÿ*ó©,LíjâÓ©L,DETAILS.rcSn,DETAILS.batterySn,DETAILS.appType,DETAILS.appVersion,APP_GPS.latitude,APP_GPS.longitude,APP_GPS.accuracy,APP_TIP.tip,APP_WARN.warn,APP_SER_WARN.warn,APP_MESS.message,100,1.062954679,-73.51450734
55:04.3,,,0,0.74,,0.1,0.36,3.03,0.75,3.52,0.3,59.485148,18.276149,0.3,25048,0,0,-0.4,0.3,-1.2,65.4,AutoTakeoff,11,AutoFly,1,FALSE,Sky,TRUE,TRUE,Other,7,TRUE,FALSE,0,P,TRUE,FALSE,FALSE,4,Smart,FALSE,FALSE,FALSE,FALSE,FALSE,FALSE,FALSE,FALSE,12,AppAutoTakeoff,14,None,0,Already,0,FALSE,0,0.4,2.9,1,31,41,MonitorError,0,,0,RC,0,-4,0,65.9,YawFollow,2,0,0,0.3,FALSE,0,FALSE,FALSE,FALSE,FALSE,FALSE,1,FALSE,FALSE,FALSE,99725,,,,,,,,,,,,,,,,,,,,,100,1,,,3.98,3.978,3.977,3.971,,,501,13/12/2019,,,,,,,0,0,0,0,10,6957.01,1783.848,None,0,NonGoHome,0,0,15.828,71,25,FALSE,10,TRUE,0,,,,,,,,,,,,,,,1,0,1,No,No,0,1,Full,0,No,0,0,0,0,CheckSuccess,Record,8064,0,0,0,0,Other,1,GoHome,FALSE,FALSE,FALSE,59.485149,18.276154,84.42,TRUE,1,1,FALSE,FALSE,FALSE,FALSE,0,FALSE,0,FALSE,FALSE,FALSE,CourseLock,30,115.9,0,0,0,22,FALSE,FALSE,FALSE,FALSE,FALSE,FALSE,FALSE,Normal,NonLimit,FALSE,MotorOff,MotorOff,MotorOff,MotorOff,NonConnect,NonConnect,NonConnect,NonConnect,5,,,,,,,,,,,,,,,,52,162,0,9464641,,,,1.34E+03,1332084.012,0,0,0,255,37674,25047.48,190,,×2RetÅ°þ3¸´štÉ§t,‘µštÈ¾þ‡ÿ*ó©,LíjâÓ©L,DETAILS.rcSn,DETAILS.batterySn,DETAILS.appType,DETAILS.appVersion,APP_GPS.latitude,APP_GPS.longitude,APP_GPS.accuracy,APP_TIP.tip,APP_WARN.warn,APP_SER_WARN.warn,APP_MESS.message,100,1.236910415,-38.63439538
55:04.4,,,0,0.8,,0.1,0.53,0.34,0.8,3.52,0.3,59.485148,18.276149,0.3,25048,0,0,-0.4,-0.1,-1.5,65.4,AutoTakeoff,11,AutoFly,1,FALSE,Sky,TRUE,TRUE,Other,7,TRUE,FALSE,0,P,TRUE,FALSE,FALSE,4,Smart,FALSE,FALSE,FALSE,FALSE,FALSE,FALSE,FALSE,FALSE,13,AppAutoTakeoff,14,None,0,Already,0,FALSE,0,0.4,3,1,31,41,MonitorError,0,,0,RC,0,-4,0,65.9,YawFollow,2,0,0,0.2,FALSE,0,FALSE,FALSE,FALSE,FALSE,FALSE,1,FALSE,FALSE,FALSE,99825,,,,,,,,,,,,,,,,,,,,,100,1,,,3.98,3.978,3.977,3.971,,,501,13/12/2019,,,,,,,0,0,0,0,10,6957.01,1783.848,None,0,NonGoHome,0,0,15.828,71,25,FALSE,10,TRUE,0,,,,,,,,,,,,,,,1,0,1,No,No,0,1,Full,0,No,0,0,0,0,CheckSuccess,Record,8064,0,0,0,0,Other,1,GoHome,FALSE,FALSE,FALSE,59.485149,18.276154,84.42,TRUE,1,1,FALSE,FALSE,FALSE,FALSE,0,FALSE,0,FALSE,FALSE,FALSE,CourseLock,30,115.9,0,0,0,22,FALSE,FALSE,FALSE,FALSE,FALSE,FALSE,FALSE,Normal,NonLimit,FALSE,MotorOff,MotorOff,MotorOff,MotorOff,NonConnect,NonConnect,NonConnect,NonConnect,5,,,,,,,,,,,,,,,,52,162,0,9464641,,,,1.34E+03,1332084.012,0,0,0,255,37674,25047.48,190,,×2RetÅ°þ3¸´štÉ§t,‘µštÈ¾þ‡ÿ*ó©,LíjâÓ©L,DETAILS.rcSn,DETAILS.batterySn,DETAILS.appType,DETAILS.appVersion,APP_GPS.latitude,APP_GPS.longitude,APP_GPS.accuracy,APP_TIP.tip,APP_WARN.warn,APP_SER_WARN.warn,APP_MESS.message,100,1.503326599,-20.78679015
55:04.5,,,0,0.84,,0.1,0.42,0.38,0.84,3.52,0.4,59.485147,18.276148,0.4,25048,0,0,-0.4,-0.5,-1.6,65.4,AutoTakeoff,11,AutoFly,1,FALSE,Sky,TRUE,TRUE,Other,7,TRUE,FALSE,0,P,TRUE,FALSE,FALSE,4,Smart,FALSE,FALSE,FALSE,FALSE,FALSE,FALSE,FALSE,FALSE,13,AppAutoTakeoff,14,None,0,Already,0,FALSE,0,0.4,3.1,1,31,41,MonitorError,0,,0,RC,0,-4,0,65.9,YawFollow,2,0,0,0,FALSE,0,FALSE,FALSE,FALSE,FALSE,FALSE,1,FALSE,FALSE,FALSE,99925,,,,,,,,,,,,,,,,,,,,,100,1,,,3.98,3.978,3.977,3.971,,,501,13/12/2019,,,,,,,0,0,0,0,10,6957.01,1783.848,None,0,NonGoHome,0,0,15.828,71,25,FALSE,10,TRUE,0,,,,,,,,,,,,,,,1,0,1,No,No,0,1,Full,0,No,0,0,0,0,CheckSuccess,Record,8064,0,0,0,0,Other,1,GoHome,FALSE,FALSE,FALSE,59.485149,18.276154,84.42,TRUE,1,1,FALSE,FALSE,FALSE,FALSE,0,FALSE,0,FALSE,FALSE,FALSE,CourseLock,30,115.9,0,0,0,22,FALSE,FALSE,FALSE,FALSE,FALSE,FALSE,FALSE,Normal,NonLimit,FALSE,MotorOff,MotorOff,MotorOff,MotorOff,NonConnect,NonConnect,NonConnect,NonConnect,5,,,,,,,,,,,,,,,,52,162,0,9464641,,,,1.34E+03,1332084.012,0,0,0,255,37674,25047.48,190,,×2RetÅ°þ3¸´štÉ§t,‘µštÈ¾þ‡ÿ*ó©,LíjâÓ©L,DETAILS.rcSn,DETAILS.batterySn,DETAILS.appType,DETAILS.appVersion,APP_GPS.latitude,APP_GPS.longitude,APP_GPS.accuracy,APP_TIP.tip,APP_WARN.warn,APP_SER_WARN.warn,APP_MESS.message,100,1.676227958,-7.249801819
55:04.6,,,0,0.89,,0.1,0.51,0.44,0.9,3.52,0.4,59.485147,18.276147,0.4,25048,0,0,-0.4,-0.7,-1.5,65.4,AutoTakeoff,11,AutoFly,1,FALSE,Sky,TRUE,TRUE,Other,7,TRUE,FALSE,0,P,TRUE,FALSE,FALSE,4,Smart,FALSE,FALSE,FALSE,FALSE,FALSE,FALSE,FALSE,FALSE,13,AppAutoTakeoff,14,None,0,Already,0,FALSE,0,0.5,3.2,1,31,41,MonitorError,0,,0,RC,0,-4,0,65.9,YawFollow,2,0,0,0.2,FALSE,0,FALSE,FALSE,FALSE,FALSE,FALSE,1,FALSE,FALSE,FALSE,100025,,,,,,,,,,,,,,,,,,,,,100,1,,,3.98,3.978,3.977,3.971,,,501,13/12/2019,,,,,,,0,0,0,0,10,6957.01,1783.848,None,0,NonGoHome,0,0,15.828,71,25,FALSE,10,TRUE,0,,,,,,,,,,,,,,,1,0,1,No,No,0,1,Full,0,No,0,0,0,0,CheckSuccess,Record,8064,0,0,0,0,Other,1,GoHome,FALSE,FALSE,FALSE,59.485149,18.276154,84.42,TRUE,1,1,FALSE,FALSE,FALSE,FALSE,0,FALSE,0,FALSE,FALSE,FALSE,CourseLock,30,115.9,0,0,0,22,FALSE,FALSE,FALSE,FALSE,FALSE,FALSE,FALSE,Normal,NonLimit,FALSE,MotorOff,MotorOff,MotorOff,MotorOff,NonConnect,NonConnect,NonConnect,NonConnect,5,,,,,,,,,,,,,,,,52,162,0,9464641,,,,1.34E+03,1332084.012,0,0,0,255,37674,25047.48,190,,×2RetÅ°þ3¸´štÉ§t,‘µštÈ¾þ‡ÿ*ó©,LíjâÓ©L,DETAILS.rcSn,DETAILS.batterySn,DETAILS.appType,DETAILS.appVersion,APP_GPS.latitude,APP_GPS.longitude,APP_GPS.accuracy,APP_TIP.tip,APP_WARN.warn,APP_SER_WARN.warn,APP_MESS.message,100,1.655159326,0.412969133
55:04.8,,,0,0.94,,0.1,0.48,0.49,0.95,3.52,0.5,59.485147,18.276147,0.5,25048,0,0,-0.4,-0.8,-1.3,65.5,AutoTakeoff,11,AutoFly,1,FALSE,Sky,TRUE,TRUE,Other,7,TRUE,FALSE,0,P,TRUE,FALSE,FALSE,4,Smart,FALSE,FALSE,FALSE,FALSE,FALSE,FALSE,FALSE,FALSE,13,AppAutoTakeoff,14,None,0,Already,0,FALSE,0,0.5,3.3,1,31,41,MonitorError,0,,0,RC,0,-4,0,65.9,YawFollow,2,0,0,0.3,FALSE,0,FALSE,FALSE,FALSE,FALSE,FALSE,1,FALSE,FALSE,FALSE,100125,,,,,,,,,,,,,,,,,,,,,100,1,,,3.98,3.978,3.977,3.971,,,501,13/12/2019,,,,,,,0,0,0,0,10,6957.01,1783.848,None,0,NonGoHome,0,0,15.828,71,25,FALSE,10,TRUE,0,,,,,,,,,,,,,,,1,0,1,No,No,0,1,Full,0,No,0,0,0,0,CheckSuccess,Record,8064,0,0,0,0,Other,1,GoHome,FALSE,FALSE,FALSE,59.485149,18.276154,84.42,TRUE,1,1,FALSE,FALSE,FALSE,FALSE,0,FALSE,0,FALSE,FALSE,FALSE,CourseLock,30,115.9,0,0,0,22,FALSE,FALSE,FALSE,FALSE,FALSE,FALSE,FALSE,Normal,NonLimit,FALSE,MotorOff,MotorOff,MotorOff,MotorOff,NonConnect,NonConnect,NonConnect,NonConnect,5,,,,,,,,,,,,,,,,52,162,0,9464641,,,,1.34E+03,1332084.012,0,0,0,255,37674,25047.48,190,,×2RetÅ°þ3¸´štÉ§t,‘µštÈ¾þ‡ÿ*ó©,LíjâÓ©L,DETAILS.rcSn,DETAILS.batterySn,DETAILS.appType,DETAILS.appVersion,APP_GPS.latitude,APP_GPS.longitude,APP_GPS.accuracy,APP_TIP.tip,APP_WARN.warn,APP_SER_WARN.warn,APP_MESS.message,100,1.526289898,7.104775251
55:04.8,,,0,0.94,,0.1,0.31,0.5,0.98,3.52,0.5,59.485147,18.276146,0.5,25048,0,0,-0.4,-0.9,-1.1,65.5,AutoTakeoff,11,AutoFly,1,FALSE,Sky,TRUE,TRUE,Other,7,TRUE,FALSE,0,P,TRUE,FALSE,FALSE,4,Smart,FALSE,FALSE,FALSE,FALSE,FALSE,FALSE,FALSE,FALSE,13,AppAutoTakeoff,14,None,0,Already,0,FALSE,0,0.6,3.4,1,31,41,MonitorError,0,,0,RC,0,-4,0,65.9,YawFollow,2,0,0,0,FALSE,0,FALSE,FALSE,FALSE,FALSE,FALSE,1,FALSE,FALSE,FALSE,100225,,,,,,,,,,,,,,,,,,,,,100,1,,,3.98,3.978,3.977,3.971,,,501,13/12/2019,,,,,,,0,0,0,0,10,6957.01,1783.848,None,0,NonGoHome,0,0,15.828,71,25,FALSE,10,TRUE,0,,,,,,,,,,,,,,,1,0,1,No,No,0,1,Full,0,No,0,0,0,0,CheckSuccess,Record,8064,0,0,0,0,Other,1,GoHome,FALSE,FALSE,FALSE,59.485149,18.276154,84.42,TRUE,1,1,FALSE,FALSE,FALSE,FALSE,0,FALSE,0,FALSE,FALSE,FALSE,CourseLock,30,115.9,0,0,0,22,FALSE,FALSE,FALSE,FALSE,FALSE,FALSE,FALSE,Normal,NonLimit,FALSE,MotorOff,MotorOff,MotorOff,MotorOff,NonConnect,NonConnect,NonConnect,NonConnect,5,,,,,,,,,,,,,,,,52,162,0,9464641,,,,1.34E+03,1332084.012,0,0,0,255,37674,25047.48,190,,×2RetÅ°þ3¸´štÉ§t,‘µštÈ¾þ‡ÿ*ó©,LíjâÓ©L,DETAILS.rcSn,DETAILS.batterySn,DETAILS.appType,DETAILS.appVersion,APP_GPS.latitude,APP_GPS.longitude,APP_GPS.accuracy,APP_TIP.tip,APP_WARN.warn,APP_SER_WARN.warn,APP_MESS.message,100,1.421127033,14.78826619
55:04.9,,,0,1.02,,0.1,0,0.55,1.03,3.52,0.6,59.485147,18.276145,0.6,25048,0,0,-0.4,-0.9,-1.1,65.6,AutoTakeoff,11,AutoFly,1,FALSE,Sky,TRUE,TRUE,Other,7,TRUE,FALSE,0,P,TRUE,FALSE,FALSE,4,Smart,FALSE,FALSE,FALSE,FALSE,FALSE,FALSE,FALSE,FALSE,13,AppAutoTakeoff,14,None,0,Already,0,FALSE,0,0.6,3.5,1,31,41,MonitorError,0,,0,RC,0,-4,0,65.9,YawFollow,2,0,0,0,FALSE,0,FALSE,FALSE,FALSE,FALSE,FALSE,1,FALSE,FALSE,FALSE,100325,,,,,,,,,,,,,,,,,,,,,100,1,,,3.98,3.978,3.977,3.971,,,501,13/12/2019,,,,,,,0,0,0,0,10,6957.01,1783.848,None,0,NonGoHome,0,0,15.828,71,25,FALSE,10,TRUE,0,,,,,,,,,,,,,,,1,0,1,No,No,0,1,Full,0,No,0,0,0,0,CheckSuccess,Record,8064,0,0,0,0,Other,1,GoHome,FALSE,FALSE,FALSE,59.485149,18.276154,84.42,TRUE,1,1,FALSE,FALSE,FALSE,FALSE,0,FALSE,0,FALSE,FALSE,FALSE,CourseLock,30,115.9,0,0,0,22,FALSE,FALSE,FALSE,FALSE,FALSE,FALSE,FALSE,Normal,NonLimit,FALSE,MotorOff,MotorOff,MotorOff,MotorOff,NonConnect,NonConnect,NonConnect,NonConnect,5,,,,,,,,,,,,,,,,52,162,0,9464641,,,,1.34E+03,1332084.012,0,0,0,255,37674,25047.48,190,,×2RetÅ°þ3¸´štÉ§t,‘µštÈ¾þ‡ÿ*ó©,LíjâÓ©L,DETAILS.rcSn,DETAILS.batterySn,DETAILS.appType,DETAILS.appVersion,APP_GPS.latitude,APP_GPS.longitude,APP_GPS.accuracy,APP_TIP.tip,APP_WARN.warn,APP_SER_WARN.warn,APP_MESS.message,100,1.421127033,14.88826619
55:05.0,,,0,1.06,,0.1,0.4,0.59,1.07,3.52,0.6,59.485147,18.276145,0.6,25048,0,0,-0.4,-1,-1.1,65.6,AutoTakeoff,11,AutoFly,1,FALSE,Sky,TRUE,TRUE,Other,7,TRUE,FALSE,0,P,TRUE,FALSE,FALSE,4,Smart,FALSE,FALSE,FALSE,FALSE,FALSE,FALSE,FALSE,FALSE,13,AppAutoTakeoff,14,None,0,Already,0,FALSE,0,0.7,3.6,1,31,41,MonitorError,0,,0,RC,0,-4,0,65.9,YawFollow,2,0,0,-0.2,FALSE,0,FALSE,FALSE,FALSE,FALSE,FALSE,1,FALSE,FALSE,FALSE,100425,,,,,,,,,,,,,,,,,,,,,100,1,,,3.98,3.978,3.977,3.971,,,501,13/12/2019,,,,,,,0,0,0,0,10,6957.01,1783.848,None,0,NonGoHome,0,0,15.828,71,25,FALSE,10,TRUE,0,,,,,,,,,,,,,,,1,0,1,No,No,0,1,Full,0,No,0,0,0,0,CheckSuccess,Record,8064,0,0,0,0,Other,1,GoHome,FALSE,FALSE,FALSE,59.485149,18.276154,84.42,TRUE,1,1,FALSE,FALSE,FALSE,FALSE,0,FALSE,0,FALSE,FALSE,FALSE,CourseLock,30,115.9,0,0,0,22,FALSE,FALSE,FALSE,FALSE,FALSE,FALSE,FALSE,Normal,NonLimit,FALSE,MotorOff,MotorOff,MotorOff,MotorOff,NonConnect,NonConnect,NonConnect,NonConnect,5,,,,,,,,,,,,,,,,52,162,0,9464641,,,,1.34E+03,1332084.012,0,0,0,255,37674,25047.48,190,,×2RetÅ°þ3¸´štÉ§t,‘µštÈ¾þ‡ÿ*ó©,LíjâÓ©L,DETAILS.rcSn,DETAILS.batterySn,DETAILS.appType,DETAILS.appVersion,APP_GPS.latitude,APP_GPS.longitude,APP_GPS.accuracy,APP_TIP.tip,APP_WARN.warn,APP_SER_WARN.warn,APP_MESS.message,100,1.486441627,17.87308081
55:05.1,,,0,1.11,,0.1,0.46,0.63,1.11,3.52,0.7,59.485147,18.276144,0.7,25048,0,0,-0.4,-1,-1.1,65.5,AutoTakeoff,11,AutoFly,1,FALSE,Sky,TRUE,TRUE,Other,7,TRUE,FALSE,0,P,TRUE,FALSE,FALSE,4,Smart,FALSE,FALSE,FALSE,FALSE,FALSE,FALSE,FALSE,FALSE,13,AppAutoTakeoff,14,None,0,Already,0,FALSE,0,0.7,3.7,1,31,41,MonitorError,0,,0,RC,0,-4,0,65.9,YawFollow,2,0,0,0,FALSE,0,FALSE,FALSE,FALSE,FALSE,FALSE,1,FALSE,FALSE,FALSE,100525,,,,,,,,,,,,,,,,,,,,,100,1,,,3.91,3.909,3.904,3.895,,,501,13/12/2019,,,,,,,0,0,0,0,10,6957.01,1783.848,None,0,NonGoHome,0,0,15.828,71,25,FALSE,10,TRUE,0,,,,,,,,,,,,,,,1,0,1,No,No,0,1,Full,0,No,0,0,0,0,CheckSuccess,Record,8064,0,0,0,0,Other,1,GoHome,FALSE,FALSE,FALSE,59.485149,18.276154,84.42,TRUE,1,1,FALSE,FALSE,FALSE,FALSE,0,FALSE,0,FALSE,FALSE,FALSE,CourseLock,30,115.9,0,0,0,22,FALSE,FALSE,FALSE,FALSE,FALSE,FALSE,FALSE,Normal,NonLimit,FALSE,MotorOff,MotorOff,MotorOff,MotorOff,NonConnect,NonConnect,NonConnect,NonConnect,5,,,,,,,,,,,,,,,,52,162,0,9464641,,,,1.34E+03,1332084.012,0,0,0,255,37674,25047.48,190,,×2RetÅ°þ3¸´štÉ§t,‘µštÈ¾þ‡ÿ*ó©,LíjâÓ©L,DETAILS.rcSn,DETAILS.batterySn,DETAILS.appType,DETAILS.appVersion,APP_GPS.latitude,APP_GPS.longitude,APP_GPS.accuracy,APP_TIP.tip,APP_WARN.warn,APP_SER_WARN.warn,APP_MESS.message,100,1.486441627,17.77308081
55:05.2,,,0,1.14,,0.1,0.33,0.64,1.15,3.52,0.7,59.485147,18.276144,0.7,25048,0,0,-0.4,-1.1,-1.2,65.5,AutoTakeoff,11,AutoFly,1,FALSE,Sky,TRUE,TRUE,Other,7,TRUE,FALSE,0,P,TRUE,FALSE,FALSE,4,Smart,FALSE,FALSE,FALSE,FALSE,FALSE,FALSE,FALSE,FALSE,13,AppAutoTakeoff,14,None,0,Already,0,FALSE,0,0.8,3.8,1,31,41,MonitorError,0,,0,RC,0,-4,0,65.9,YawFollow,2,0,0,0,FALSE,0,FALSE,FALSE,FALSE,FALSE,FALSE,1,FALSE,FALSE,FALSE,100625,,,,,,,,,,,,,,,,,,,,,100,1,,,3.91,3.909,3.904,3.895,,,501,13/12/2019,,,,,,,0,0,0,0,10,6957.01,1783.848,None,0,NonGoHome,0,0,15.828,71,25,FALSE,10,TRUE,0,,,,,,,,,,,,,,,1,0,1,No,No,0,1,Full,0,No,0,0,0,0,CheckSuccess,Record,8064,0,0,0,0,Other,1,GoHome,FALSE,FALSE,FALSE,59.485149,18.276154,84.42,TRUE,1,1,FALSE,FALSE,FALSE,FALSE,0,FALSE,0,FALSE,FALSE,FALSE,CourseLock,30,115.9,0,0,0,22,FALSE,FALSE,FALSE,FALSE,FALSE,FALSE,FALSE,Normal,NonLimit,FALSE,MotorOff,MotorOff,MotorOff,MotorOff,NonConnect,NonConnect,NonConnect,NonConnect,5,,,,,,,,,,,,,,,,52,162,0,9464641,,,,1.34E+03,1332084.012,0,0,0,255,37674,25047.48,190,,×2RetÅ°þ3¸´štÉ§t,‘µštÈ¾þ‡ÿ*ó©,LíjâÓ©L,DETAILS.rcSn,DETAILS.batterySn,DETAILS.appType,DETAILS.appVersion,APP_GPS.latitude,APP_GPS.longitude,APP_GPS.accuracy,APP_TIP.tip,APP_WARN.warn,APP_SER_WARN.warn,APP_MESS.message,100,1.627664765,18.00978043
55:05.3,,,0,1.19,,0.1,0.4,0.68,1.19,3.52,0.8,59.485147,18.276143,0.8,25048,0,0,-0.5,-1.1,-1.4,65.5,AutoTakeoff,11,AutoFly,1,FALSE,Sky,TRUE,TRUE,Other,7,TRUE,FALSE,0,P,TRUE,FALSE,FALSE,4,Smart,FALSE,FALSE,FALSE,FALSE,FALSE,FALSE,FALSE,FALSE,13,AppAutoTakeoff,14,None,0,Already,0,FALSE,0,0.8,3.9,1,31,41,MonitorError,0,,0,RC,0,-4,0,65.9,YawFollow,2,0,0,0,FALSE,0,FALSE,FALSE,FALSE,FALSE,FALSE,1,FALSE,FALSE,FALSE,100725,,,,,,,,,,,,,,,,,,,,,100,1,,,3.91,3.909,3.904,3.895,,,501,13/12/2019,,,,,,,0,1,0,0,10,9248.42,2371.389,None,0,NonGoHome,0,0,15.613,71,25,FALSE,10,TRUE,0,,,,,,,,,,,,,,,1,0,1,No,No,0,1,Full,0,No,0,0,0,0,CheckSuccess,Record,8064,0,0,0,0,Other,1,GoHome,FALSE,FALSE,FALSE,59.485149,18.276154,84.42,TRUE,1,1,FALSE,FALSE,FALSE,FALSE,0,FALSE,0,FALSE,FALSE,FALSE,CourseLock,30,115.9,0,0,0,22,FALSE,FALSE,FALSE,FALSE,FALSE,FALSE,FALSE,Normal,NonLimit,FALSE,MotorOff,MotorOff,MotorOff,MotorOff,NonConnect,NonConnect,NonConnect,NonConnect,5,,,,,,,,,,,,,,,,52,162,0,9464641,,,,1.34E+03,1332084.012,0,0,0,255,37674,25047.48,190,,×2RetÅ°þ3¸´štÉ§t,‘µštÈ¾þ‡ÿ*ó©,LíjâÓ©L,DETAILS.rcSn,DETAILS.batterySn,DETAILS.appType,DETAILS.appVersion,APP_GPS.latitude,APP_GPS.longitude,APP_GPS.accuracy,APP_TIP.tip,APP_WARN.warn,APP_SER_WARN.warn,APP_MESS.message,100,1.780178982,13.65510641
55:05.4,,,0,1.23,,0.1,0.41,0.69,1.23,3.52,0.8,59.485148,18.276142,0.8,25048,0,0,-0.5,-1,-1.4,65.5,AutoTakeoff,11,AutoFly,1,FALSE,Sky,TRUE,TRUE,Other,7,TRUE,FALSE,0,P,TRUE,FALSE,FALSE,4,Smart,FALSE,FALSE,FALSE,FALSE,FALSE,FALSE,FALSE,FALSE,13,AppAutoTakeoff,14,None,0,Already,0,FALSE,0,0.9,4,1,31,41,MonitorError,0,,0,RC,0,-4,0,65.9,YawFollow,2,0,0,0,FALSE,0,FALSE,FALSE,FALSE,FALSE,FALSE,1,FALSE,FALSE,FALSE,100825,,,,,,,,,,,,,,,,,,,,,100,1,,,3.91,3.909,3.904,3.895,,,501,13/12/2019,,,,,,,0,1,0,0,10,9248.42,2371.389,None,0,NonGoHome,0,0,15.613,71,25,FALSE,10,TRUE,0,,,,,,,,,,,,,,,1,0,1,No,No,0,1,Full,0,No,0,0,0,0,CheckSuccess,Record,8064,0,0,0,0,Other,1,GoHome,FALSE,FALSE,FALSE,59.485149,18.276154,84.42,TRUE,1,1,FALSE,FALSE,FALSE,FALSE,0,FALSE,0,FALSE,FALSE,FALSE,CourseLock,30,115.9,0,0,0,22,FALSE,FALSE,FALSE,FALSE,FALSE,FALSE,FALSE,Normal,NonLimit,FALSE,MotorOff,MotorOff,MotorOff,MotorOff,NonConnect,NonConnect,NonConnect,NonConnect,5,,,,,,,,,,,,,,,,52,162,0,9464641,,,,1.34E+03,1332084.012,0,0,0,255,37674,25047.48,190,,×2RetÅ°þ3¸´štÉ§t,‘µštÈ¾þ‡ÿ*ó©,LíjâÓ©L,DETAILS.rcSn,DETAILS.batterySn,DETAILS.appType,DETAILS.appVersion,APP_GPS.latitude,APP_GPS.longitude,APP_GPS.accuracy,APP_TIP.tip,APP_WARN.warn,APP_SER_WARN.warn,APP_MESS.message,100,1.720233786,11.0350357
55:05.5,,,0,1.27,,0.1,0.4,0.73,1.27,3.52,0.9,59.485148,18.276142,0.9,25048,0,0,-0.5,-0.9,-1.3,65.6,AutoTakeoff,11,AutoFly,1,FALSE,Sky,TRUE,TRUE,Other,7,TRUE,FALSE,0,P,TRUE,FALSE,FALSE,4,Smart,FALSE,FALSE,FALSE,FALSE,FALSE,FALSE,FALSE,FALSE,13,AppAutoTakeoff,14,None,0,Already,0,FALSE,0,0.9,4.1,1,31,41,MonitorError,0,,0,RC,0,-4,0,65.9,YawFollow,2,0,0,0,FALSE,0,FALSE,FALSE,FALSE,FALSE,FALSE,1,FALSE,FALSE,FALSE,100925,,,,,,,,,,,,,,,,,,,,,100,1,,,3.91,3.909,3.904,3.895,,,501,13/12/2019,,,,,,,0,1,0,0,10,9248.42,2371.389,None,0,NonGoHome,0,0,15.613,71,25,FALSE,10,TRUE,0,,,,,,,,,,,,,,,1,0,1,No,No,0,1,Full,0,No,0,0,0,0,CheckSuccess,Record,8064,0,0,0,0,Other,1,GoHome,FALSE,FALSE,FALSE,59.485149,18.276154,84.42,TRUE,1,1,FALSE,FALSE,FALSE,FALSE,0,FALSE,0,FALSE,FALSE,FALSE,CourseLock,30,115.9,0,0,0,22,FALSE,FALSE,FALSE,FALSE,FALSE,FALSE,FALSE,Normal,NonLimit,FALSE,MotorOff,MotorOff,MotorOff,MotorOff,NonConnect,NonConnect,NonConnect,NonConnect,5,,,,,,,,,,,,,,,,52,162,0,9464641,,,,1.34E+03,1332084.012,0,0,0,255,37674,25047.48,190,,×2RetÅ°þ3¸´štÉ§t,‘µštÈ¾þ‡ÿ*ó©,LíjâÓ©L,DETAILS.rcSn,DETAILS.batterySn,DETAILS.appType,DETAILS.appVersion,APP_GPS.latitude,APP_GPS.longitude,APP_GPS.accuracy,APP_TIP.tip,APP_WARN.warn,APP_SER_WARN.warn,APP_MESS.message,100,1.580963066,10.29275716
55:05.6,,,0,1.33,,0.1,0.58,0.69,1.33,3.52,0.9,59.485148,18.276142,0.9,25048,0,0,-0.5,-0.9,-1.2,65.6,AutoTakeoff,11,AutoFly,1,FALSE,Sky,TRUE,TRUE,Other,7,TRUE,FALSE,0,P,TRUE,FALSE,FALSE,4,Smart,FALSE,FALSE,FALSE,FALSE,FALSE,FALSE,FALSE,FALSE,13,AppAutoTakeoff,14,None,0,Already,0,FALSE,0,0.9,4.2,1,31,41,MonitorError,0,,0,RC,0,-4,0,65.9,YawFollow,2,0,0,0,FALSE,0,FALSE,FALSE,FALSE,FALSE,FALSE,1,FALSE,FALSE,FALSE,101025,,,,,,,,,,,,,,,,,,,,,100,1,,,3.91,3.909,3.904,3.895,,,501,13/12/2019,,,,,,,0,1,0,0,10,9248.42,2371.389,None,0,NonGoHome,0,0,15.613,71,25,FALSE,10,TRUE,0,,,,,,,,,,,,,,,1,0,1,No,No,0,1,Full,0,No,0,0,0,0,CheckSuccess,Record,8064,0,0,0,0,Other,1,GoHome,FALSE,FALSE,FALSE,59.485149,18.276154,84.42,TRUE,1,1,FALSE,FALSE,FALSE,FALSE,0,FALSE,0,FALSE,FALSE,FALSE,CourseLock,30,115.9,0,0,0,22,FALSE,FALSE,FALSE,FALSE,FALSE,FALSE,FALSE,Normal,NonLimit,FALSE,MotorOff,MotorOff,MotorOff,MotorOff,NonConnect,NonConnect,NonConnect,NonConnect,5,,,,,,,,,,,,,,,,52,162,0,9464641,,,,1.34E+03,1332084.012,0,0,0,255,37674,25047.48,190,,×2RetÅ°þ3¸´štÉ§t,‘µštÈ¾þ‡ÿ*ó©,LíjâÓ©L,DETAILS.rcSn,DETAILS.batterySn,DETAILS.appType,DETAILS.appVersion,APP_GPS.latitude,APP_GPS.longitude,APP_GPS.accuracy,APP_TIP.tip,APP_WARN.warn,APP_SER_WARN.warn,APP_MESS.message,100,1.49984213,12.46813809
55:05.7,,,0,1.36,,0.1,0.33,0.72,1.37,3.52,1,59.485148,18.276142,1,25049,0,0,-0.4,-0.9,-1,65.5,AutoTakeoff,11,AutoFly,1,FALSE,Sky,TRUE,TRUE,Other,7,TRUE,FALSE,0,P,TRUE,FALSE,FALSE,4,Smart,FALSE,FALSE,FALSE,FALSE,FALSE,FALSE,FALSE,FALSE,13,AppAutoTakeoff,14,None,0,Already,0,FALSE,0,1,4.3,1,31,41,MonitorError,0,,0,RC,0,-4,0,65.9,YawFollow,2,0,0,0,FALSE,0,FALSE,FALSE,FALSE,FALSE,FALSE,1,FALSE,FALSE,FALSE,101125,,,,,,,,,,,,,,,,,,,,,100,1,,,3.91,3.909,3.904,3.895,,,501,13/12/2019,,,,,,,0,1,0,0,10,9248.42,2371.389,None,0,NonGoHome,0,0,15.613,71,25,FALSE,10,TRUE,0,,,,,,,,,,,,,,,1,0,1,No,No,0,1,Full,0,No,0,0,0,0,CheckSuccess,Record,8064,0,0,0,0,Other,1,GoHome,FALSE,FALSE,FALSE,59.485149,18.276154,84.42,TRUE,1,1,FALSE,FALSE,FALSE,FALSE,0,FALSE,0,FALSE,FALSE,FALSE,CourseLock,30,115.9,0,0,0,22,FALSE,FALSE,FALSE,FALSE,FALSE,FALSE,FALSE,Normal,NonLimit,FALSE,MotorOff,MotorOff,MotorOff,MotorOff,NonConnect,NonConnect,NonConnect,NonConnect,5,,,,,,,,,,,,,,,,52,162,0,9464641,,,,1.34E+03,1332084.012,0,0,0,255,37674,25047.48,190,,×2RetÅ°þ3¸´štÉ§t,‘µštÈ¾þ‡ÿ*ó©,LíjâÓ©L,DETAILS.rcSn,DETAILS.batterySn,DETAILS.appType,DETAILS.appVersion,APP_GPS.latitude,APP_GPS.longitude,APP_GPS.accuracy,APP_TIP.tip,APP_WARN.warn,APP_SER_WARN.warn,APP_MESS.message,100,1.345240165,17.48666279
